run_id,case_name,cargo_count,total_mass_kg,secured_frac,Time,PosX,PosY,PosZ,VelX,VelY,VelZ,SpeedKmh,AccX,AccY,AccZ,LongAcc,LatAcc,VertAcc,Roll,Pitch,Yaw,RollRate,PitchRate,YawRate,AngVelX,AngVelY,AngVelZ,AngAccX,AngAccY,AngAccZ,SteerAngle,TargetSteer,Throttle,Brake,FL_Grounded,FR_Grounded,RL_Grounded,RR_Grounded,FL_ForwardSlip,FR_ForwardSlip,RL_ForwardSlip,RR_ForwardSlip,FL_SideSlip,FR_SideSlip,RL_SideSlip,RR_SideSlip,MaxForwardSlip,MaxSideSlip,RolloverRisk,IsRollover
20260703_203049,case01_baseline_boxes,6,294.5,1.000,0.640,679.395,-1.501,736.112,-0.146,0.448,0.014,1.696,-1.619,0.957,0.080,1.618,0.080,0.959,-0.005,0.057,-89.997,0.159,0.390,0.046,-0.003,0.002,0.006,0.003,0.022,-0.036,12.800,0.380,1.000,0.000,1,1,1,1,-0.004,-0.002,0.737,-1.083,-0.009,-0.008,-0.001,-0.001,1.083,0.009,0.000,0
20260703_203049,case01_baseline_boxes,6,294.5,1.000,0.748,679.366,-1.454,736.115,-0.372,0.386,0.036,1.935,-2.263,-0.615,0.225,2.264,0.224,-0.611,0.016,0.090,-89.967,0.219,0.330,0.292,-0.004,0.007,0.005,-0.011,0.045,-0.014,14.442,0.384,1.000,0.000,1,1,1,1,-0.006,-0.003,0.451,-1.351,-0.011,-0.006,-0.002,-0.002,1.351,0.011,0.000,0
20260703_203049,case01_baseline_boxes,6,294.5,1.000,0.856,679.313,-1.421,736.120,-0.593,0.228,0.059,2.297,-2.212,-1.586,0.224,2.216,0.219,-1.581,0.048,0.118,-89.915,0.311,0.285,0.525,-0.006,0.010,0.004,-0.017,0.037,-0.005,14.438,0.384,1.000,0.000,1,1,1,1,-0.004,-0.001,0.181,0.604,-0.010,-0.003,-0.003,-0.003,0.604,0.010,0.000,0
20260703_203049,case01_baseline_boxes,6,294.5,1.000,0.956,679.244,-1.406,736.127,-0.796,0.077,0.079,2.894,-2.031,-1.502,0.202,2.035,0.195,-1.498,0.085,0.141,-89.846,0.378,0.229,0.692,-0.007,0.014,0.003,-0.013,0.032,-0.009,14.245,0.380,1.000,0.000,1,1,1,1,-0.005,-0.003,0.021,0.228,-0.012,-0.003,-0.003,-0.003,0.228,0.012,0.000,0
20260703_203049,case01_baseline_boxes,6,294.5,1.000,1.064,679.146,-1.405,736.136,-1.014,-0.043,0.099,3.672,-2.181,-1.199,0.205,2.185,0.192,-1.194,0.133,0.157,-89.750,0.474,0.154,0.956,-0.008,0.017,0.001,-0.007,0.035,-0.021,13.818,0.362,1.000,0.000,1,1,1,1,-0.004,-0.002,0.207,-0.026,-0.012,-0.003,-0.002,-0.002,0.207,0.012,0.000,0
20260703_203049,case01_baseline_boxes,6,294.5,1.000,1.164,679.034,-1.412,736.147,-1.216,-0.096,0.115,4.410,-2.015,-0.532,0.154,2.017,0.140,-0.527,0.178,0.158,-89.646,0.456,0.011,1.045,-0.008,0.019,-0.001,0.001,0.024,-0.025,13.156,0.353,1.000,0.000,1,1,1,1,-0.002,0.000,0.151,0.508,-0.009,0.000,-0.002,-0.003,0.508,0.009,0.000,0
20260703_203049,case01_baseline_boxes,6,294.5,1.000,1.276,678.886,-1.424,736.161,-1.438,-0.102,0.131,5.210,-2.218,-0.059,0.167,2.220,0.148,-0.054,0.226,0.142,-89.512,0.480,-0.157,1.340,-0.007,0.022,-0.004,0.008,0.026,-0.026,12.615,0.340,1.000,0.000,1,1,1,1,-0.002,0.000,0.142,0.431,-0.009,0.000,-0.002,-0.002,0.431,0.009,0.000,0
20260703_203049,case01_baseline_boxes,6,294.5,1.000,1.388,678.713,-1.434,736.176,-1.652,-0.075,0.146,5.978,-2.148,0.271,0.143,2.149,0.120,0.275,0.267,0.112,-89.362,0.410,-0.300,1.494,-0.006,0.024,-0.005,0.012,0.022,-0.017,11.825,0.320,1.000,0.000,1,1,1,1,-0.004,-0.003,0.119,-0.112,-0.008,0.001,-0.002,-0.002,0.119,0.008,0.000,0
20260703_203049,case01_baseline_boxes,6,294.5,1.000,1.496,678.523,-1.440,736.192,-1.874,-0.037,0.159,6.773,-2.220,0.371,0.135,2.221,0.106,0.374,0.298,0.077,-89.208,0.308,-0.351,1.544,-0.004,0.026,-0.006,0.014,0.016,-0.003,11.268,0.306,1.000,0.000,1,1,1,1,-0.003,-0.001,0.125,0.260,-0.007,0.001,-0.002,-0.002,0.260,0.007,0.000,0
20260703_203049,case01_baseline_boxes,6,294.5,1.000,1.600,678.317,-1.442,736.210,-2.069,-0.008,0.171,7.474,-1.948,0.289,0.116,1.949,0.086,0.291,0.320,0.045,-89.050,0.214,-0.322,1.581,-0.003,0.027,-0.005,0.013,0.012,0.008,10.591,0.289,1.000,0.000,1,1,1,1,-0.003,-0.001,0.122,0.176,-0.006,0.001,-0.002,-0.002,0.176,0.006,0.000,0
20260703_203049,case01_baseline_boxes,6,294.5,1.000,1.712,678.071,-1.442,736.229,-2.301,0.013,0.184,8.312,-2.323,0.211,0.127,2.325,0.083,0.212,0.334,0.019,-88.873,0.146,-0.262,1.767,-0.002,0.028,-0.003,0.014,0.009,0.019,9.851,0.270,1.000,0.000,1,1,1,1,-0.004,-0.002,0.121,0.091,-0.006,0.000,-0.002,-0.002,0.121,0.006,0.000,0
20260703_203049,case01_baseline_boxes,6,294.5,1.000,1.824,677.802,-1.440,736.251,-2.514,0.019,0.197,9.077,-2.123,0.065,0.139,2.125,0.091,0.065,0.341,0.005,-88.690,0.066,-0.133,1.827,0.000,0.029,-0.001,0.012,0.009,0.020,9.167,0.252,1.000,0.000,1,1,1,1,-0.004,-0.002,0.121,0.089,-0.005,0.001,-0.002,-0.002,0.121,0.005,0.000,0
20260703_203049,case01_baseline_boxes,6,294.5,1.000,1.936,677.509,-1.438,736.274,-2.725,0.017,0.213,9.840,-2.113,-0.017,0.153,2.117,0.098,-0.018,0.341,0.005,-88.503,-0.002,-0.004,1.873,0.001,0.030,0.001,0.010,0.009,0.018,8.762,0.242,1.000,0.000,1,1,1,1,-0.004,-0.002,0.122,0.088,-0.005,0.000,-0.002,-0.003,0.122,0.005,0.000,0
20260703_203049,case01_baseline_boxes,6,294.5,1.000,2.048,677.192,-1.436,736.298,-2.936,0.012,0.227,10.602,-2.113,-0.054,0.143,2.116,0.080,-0.054,0.335,0.015,-88.312,-0.060,0.097,1.912,0.001,0.030,0.002,0.009,0.003,0.012,8.156,0.226,1.000,0.000,1,1,1,1,-0.004,-0.002,0.123,0.088,-0.004,0.001,-0.003,-0.003,0.123,0.004,0.000,0
20260703_203049,case01_baseline_boxes,6,294.5,1.000,2.160,676.851,-1.435,736.325,-3.147,0.006,0.242,11.363,-2.108,-0.057,0.151,2.112,0.081,-0.056,0.324,0.030,-88.119,-0.110,0.153,1.928,0.002,0.030,0.003,0.007,0.002,0.005,7.564,0.211,1.000,0.000,1,1,1,1,-0.004,-0.002,0.124,0.088,-0.003,0.001,-0.003,-0.003,0.124,0.003,0.000,0
20260703_203049,case01_baseline_boxes,6,294.5,1.000,2.260,676.524,-1.435,736.350,-3.357,0.002,0.258,12.123,-2.104,-0.043,0.156,2.108,0.080,-0.042,0.310,0.045,-87.945,-0.135,0.149,1.741,0.003,0.030,0.002,0.006,-0.001,-0.001,7.006,0.196,1.000,0.000,1,1,1,1,-0.003,-0.002,0.125,0.088,-0.002,0.002,-0.003,-0.003,0.125,0.003,0.000,0
20260703_203049,case01_baseline_boxes,6,294.5,1.000,2.364,676.167,-1.434,736.377,-3.548,0.000,0.273,12.811,-1.907,-0.025,0.148,1.912,0.073,-0.023,0.293,0.059,-87.767,-0.169,0.136,1.782,0.003,0.030,0.002,0.004,-0.002,-0.005,6.518,0.183,1.000,0.000,1,1,1,1,-0.003,-0.002,0.125,0.087,-0.001,0.003,-0.003,-0.003,0.125,0.003,0.000,0
20260703_203049,case01_baseline_boxes,6,294.5,1.000,2.468,675.787,-1.435,736.406,-3.738,-0.002,0.288,13.497,-1.900,-0.014,0.156,1.905,0.076,-0.013,0.274,0.069,-87.589,-0.192,0.100,1.772,0.003,0.030,0.001,0.003,-0.003,-0.007,6.187,0.171,1.000,0.000,1,1,1,1,-0.003,-0.002,0.126,0.087,-0.002,0.002,-0.003,-0.003,0.126,0.003,0.000,0
20260703_203049,case01_baseline_boxes,6,294.5,1.000,2.572,675.388,-1.435,736.437,-3.946,-0.003,0.305,14.250,-2.083,-0.010,0.165,2.088,0.070,-0.007,0.253,0.074,-87.415,-0.209,0.056,1.747,0.004,0.029,0.000,0.002,-0.007,-0.008,5.587,0.153,1.000,0.000,1,1,1,1,-0.003,-0.002,0.126,0.087,0.000,0.003,-0.003,-0.003,0.126,0.003,0.000,0
20260703_203049,case01_baseline_boxes,6,294.5,1.000,2.676,674.967,-1.435,736.470,-4.135,-0.003,0.319,14.930,-1.885,-0.006,0.141,1.890,0.050,-0.004,0.231,0.075,-87.246,-0.218,0.013,1.689,0.004,0.028,0.000,0.001,-0.010,-0.006,5.198,0.142,1.000,0.000,1,1,1,1,-0.003,-0.002,0.126,0.087,0.000,0.002,-0.003,-0.003,0.126,0.003,0.000,0
20260703_203049,case01_baseline_boxes,6,294.5,1.000,2.780,674.527,-1.436,736.504,-4.322,-0.004,0.335,15.607,-1.873,-0.006,0.163,1.879,0.067,-0.003,0.209,0.073,-87.082,-0.219,-0.020,1.637,0.004,0.027,-0.001,0.000,-0.007,-0.004,4.846,0.133,1.000,0.000,1,1,1,1,-0.003,-0.002,0.126,0.087,-0.001,0.001,-0.003,-0.003,0.126,0.003,0.000,0
20260703_203049,case01_baseline_boxes,6,294.5,1.000,2.884,674.066,-1.436,736.540,-4.527,-0.004,0.354,16.347,-2.047,-0.005,0.191,2.054,0.081,-0.002,0.188,0.069,-86.922,-0.216,-0.041,1.597,0.004,0.027,-0.001,-0.001,-0.007,-0.003,4.328,0.124,1.000,0.000,1,1,1,1,-0.003,-0.002,0.126,0.086,0.002,0.004,-0.003,-0.004,0.126,0.004,0.000,0
20260703_203049,case01_baseline_boxes,6,294.5,1.000,2.988,673.587,-1.436,736.577,-4.712,-0.005,0.372,17.016,-1.850,-0.001,0.179,1.857,0.075,0.000,0.167,0.064,-86.767,-0.206,-0.049,1.553,0.003,0.026,-0.001,-0.002,-0.007,0.000,4.028,0.116,1.000,0.000,1,1,1,1,-0.003,-0.002,0.125,0.086,0.002,0.003,-0.004,-0.004,0.125,0.004,0.000,0
20260703_203049,case01_baseline_boxes,6,294.5,1.000,3.096,673.067,-1.437,736.619,-4.914,-0.004,0.392,17.748,-2.023,0.003,0.202,2.032,0.082,0.005,0.147,0.060,-86.610,-0.199,-0.048,1.568,0.003,0.025,-0.001,-0.003,-0.009,0.001,3.735,0.108,1.000,0.000,1,1,1,1,-0.003,-0.002,0.125,0.086,0.001,0.003,-0.004,-0.004,0.125,0.004,0.000,0
20260703_203049,case01_baseline_boxes,6,294.5,1.000,3.199,672.547,-1.437,736.661,-5.067,-0.002,0.409,18.300,-1.525,0.024,0.168,1.533,0.074,0.025,0.130,0.056,-86.464,-0.172,-0.039,1.462,0.003,0.025,-0.001,-0.003,-0.003,-0.001,3.460,0.101,1.000,0.000,1,1,1,1,-0.010,-0.036,0.039,-0.594,0.001,0.002,-0.003,-0.003,0.594,0.003,0.000,0
20260703_203049,case01_baseline_boxes,6,294.5,1.000,3.304,672.006,-1.437,736.705,-5.327,-0.002,0.435,19.243,-2.607,0.001,0.259,2.618,0.092,0.003,0.115,0.053,-86.323,-0.150,-0.027,1.411,0.002,0.023,0.000,-0.003,-0.018,0.008,3.200,0.093,1.000,0.000,1,1,1,1,0.011,0.294,0.334,0.464,0.002,0.003,-0.004,-0.004,0.464,0.004,0.000,0
20260703_203049,case01_baseline_boxes,6,294.5,1.000,3.412,671.423,-1.438,736.752,-5.465,-0.002,0.450,19.739,-1.371,0.002,0.152,1.378,0.060,0.003,0.102,0.052,-86.182,-0.128,-0.013,1.414,0.002,0.022,0.000,-0.005,-0.007,-0.002,2.807,0.082,1.000,0.000,1,1,1,1,-0.002,-0.502,-0.047,0.565,0.004,0.005,-0.004,-0.004,0.565,0.005,0.000,0
20260703_203049,case01_baseline_boxes,6,294.5,1.000,3.520,670.821,-1.438,736.802,-5.618,-0.001,0.467,20.294,-1.533,0.005,0.173,1.542,0.067,0.007,0.093,0.052,-86.048,-0.098,0.004,1.336,0.001,0.022,0.000,-0.005,-0.002,0.000,2.585,0.076,0.977,0.000,1,1,1,1,-0.016,-0.484,-0.056,-0.288,0.002,0.002,-0.003,-0.003,0.484,0.003,0.000,0
20260703_203049,case01_baseline_boxes,6,294.5,1.000,3.628,670.198,-1.438,736.854,-5.900,0.000,0.496,21.315,-2.822,0.008,0.288,2.835,0.087,0.011,0.086,0.053,-85.921,-0.068,0.015,1.268,0.001,0.019,0.001,-0.004,-0.026,0.009,2.374,0.067,0.958,0.000,1,1,1,1,0.000,0.355,0.269,0.252,0.002,0.003,-0.004,-0.004,0.355,0.004,0.000,0
20260703_203049,case01_baseline_boxes,6,294.5,1.000,3.736,669.556,-1.438,736.909,-6.019,0.000,0.510,21.745,-1.185,0.006,0.141,1.192,0.054,0.007,0.082,0.055,-85.801,-0.037,0.013,1.202,0.000,0.019,0.000,-0.006,-0.005,-0.005,2.070,0.061,0.929,0.000,1,1,1,1,-0.002,-0.368,-0.028,0.538,0.004,0.004,-0.004,-0.004,0.538,0.004,0.000,0
20260703_203049,case01_baseline_boxes,6,294.5,1.000,3.844,668.895,-1.438,736.965,-6.209,0.001,0.532,22.433,-1.900,0.005,0.214,1.911,0.071,0.006,0.081,0.056,-85.689,-0.007,0.013,1.117,0.000,0.018,0.000,-0.005,-0.008,0.001,1.792,0.050,0.902,0.000,1,1,1,1,0.000,0.353,0.248,-0.389,0.003,0.003,-0.003,-0.003,0.389,0.003,0.000,0
20260703_203049,case01_baseline_boxes,6,294.5,1.000,3.956,668.189,-1.438,737.026,-6.389,0.001,0.549,23.087,-1.807,0.002,0.174,1.815,0.034,0.004,0.084,0.057,-85.583,0.022,0.006,1.064,-0.001,0.015,0.000,-0.004,-0.027,0.000,1.551,0.046,0.875,0.000,1,1,1,1,-0.012,-0.349,-0.022,0.242,0.003,0.003,-0.003,-0.003,0.349,0.003,0.000,0
20260703_203049,case01_baseline_boxes,6,294.5,1.000,4.064,667.489,-1.438,737.086,-6.544,0.001,0.567,23.647,-1.548,0.000,0.183,1.557,0.060,0.001,0.088,0.057,-85.489,0.048,-0.001,0.940,-0.001,0.015,0.000,-0.004,-0.002,-0.002,1.355,0.041,0.854,0.000,1,1,1,1,-0.002,0.331,0.199,-0.311,0.003,0.003,-0.003,-0.003,0.331,0.003,0.000,0
20260703_203049,case01_baseline_boxes,6,294.5,1.000,4.172,666.774,-1.438,737.148,-6.672,0.001,0.583,24.112,-1.282,-0.002,0.152,1.290,0.049,0.000,0.095,0.056,-85.402,0.070,-0.007,0.868,-0.001,0.014,0.000,-0.004,-0.008,-0.003,1.249,0.038,0.826,0.000,1,1,1,1,-0.009,-0.326,-0.001,-0.217,0.002,0.002,-0.003,-0.003,0.326,0.003,0.000,0
20260703_203049,case01_baseline_boxes,6,294.5,1.000,4.272,666.096,-1.437,737.207,-6.837,0.001,0.601,24.709,-1.649,-0.001,0.184,1.659,0.049,0.000,0.103,0.055,-85.327,0.081,-0.013,0.755,-0.002,0.013,0.000,-0.002,-0.016,0.002,1.087,0.033,0.812,0.000,1,1,1,1,-0.001,-0.309,0.028,0.495,0.004,0.004,-0.004,-0.004,0.495,0.004,0.000,0
20260703_203049,case01_baseline_boxes,6,294.5,1.000,4.380,665.348,-1.437,737.273,-6.972,0.001,0.617,25.197,-1.345,-0.001,0.160,1.353,0.048,0.000,0.114,0.053,-85.251,0.101,-0.018,0.757,-0.002,0.012,0.000,-0.002,-0.008,0.000,1.002,0.028,0.793,0.000,1,1,1,1,0.000,-0.297,0.039,0.493,0.003,0.003,-0.003,-0.003,0.493,0.003,0.000,0
20260703_203049,case01_baseline_boxes,6,294.5,1.000,4.487,664.589,-1.437,737.341,-7.135,0.001,0.636,25.789,-1.634,0.000,0.188,1.644,0.050,0.002,0.125,0.051,-85.182,0.112,-0.018,0.692,-0.002,0.011,0.000,-0.001,-0.013,0.002,0.856,0.026,0.771,0.000,1,1,1,1,-0.002,0.285,0.144,-0.072,0.003,0.003,-0.003,-0.003,0.285,0.003,0.000,0
20260703_203049,case01_baseline_boxes,6,294.5,1.000,4.592,663.839,-1.437,737.408,-7.239,0.001,0.648,26.163,-1.033,0.001,0.125,1.040,0.037,0.001,0.136,0.049,-85.120,0.114,-0.017,0.620,-0.002,0.011,0.000,-0.001,-0.001,-0.003,0.723,0.022,0.747,0.000,1,1,1,1,-0.009,-0.282,0.047,-0.108,0.002,0.003,-0.002,-0.002,0.282,0.003,0.000,0
20260703_203049,case01_baseline_boxes,6,294.5,1.000,4.692,663.106,-1.437,737.473,-7.348,0.001,0.661,26.559,-1.093,0.001,0.130,1.100,0.036,0.002,0.147,0.048,-85.065,0.112,-0.014,0.549,-0.002,0.010,0.000,0.000,-0.004,-0.001,0.654,0.019,0.729,0.000,1,1,1,1,-0.007,-0.268,0.047,-0.224,0.002,0.002,-0.002,-0.002,0.268,0.002,0.000,0
20260703_203049,case01_baseline_boxes,6,294.5,1.000,4.797,662.323,-1.437,737.544,-7.459,0.001,0.674,26.963,-1.113,0.001,0.127,1.120,0.029,0.002,0.159,0.046,-85.011,0.116,-0.016,0.537,-0.002,0.009,0.000,0.000,-0.007,0.000,0.546,0.017,0.712,0.000,1,1,1,1,-0.008,-0.258,0.042,-0.296,0.002,0.002,-0.002,-0.002,0.296,0.002,0.000,0
20260703_203049,case01_baseline_boxes,6,294.5,1.000,4.903,661.518,-1.437,737.617,-7.644,0.001,0.694,27.632,-1.849,0.001,0.197,1.859,0.034,0.003,0.170,0.045,-84.962,0.114,-0.012,0.492,-0.002,0.007,0.000,0.002,-0.024,0.006,0.451,0.014,0.704,0.000,1,1,1,1,0.005,0.245,0.134,0.441,0.004,0.004,-0.003,-0.003,0.441,0.004,0.000,0
20260703_203049,case01_baseline_boxes,6,294.5,1.000,5.008,660.718,-1.437,737.690,-7.758,0.001,0.706,28.044,-1.137,0.001,0.126,1.144,0.025,0.001,0.181,0.044,-84.919,0.104,-0.007,0.433,-0.002,0.006,0.000,0.001,-0.009,0.001,0.369,0.011,0.686,0.000,1,1,1,1,0.002,0.229,0.124,0.217,0.004,0.004,-0.003,-0.003,0.229,0.004,0.000,0
20260703_203049,case01_baseline_boxes,6,294.5,1.000,5.120,659.846,-1.437,737.769,-7.818,0.001,0.714,28.262,-0.601,-0.001,0.075,0.605,0.021,0.000,0.191,0.044,-84.876,0.102,-0.007,0.427,-0.002,0.007,0.000,0.001,0.008,-0.004,0.313,0.009,0.663,0.000,1,1,1,1,-0.007,-0.216,0.051,-0.156,0.002,0.002,-0.002,-0.002,0.216,0.002,0.000,0
20260703_203049,case01_baseline_boxes,6,294.5,1.000,5.244,658.864,-1.437,737.859,-8.001,0.001,0.733,28.923,-1.827,-0.001,0.192,1.837,0.027,0.001,0.201,0.043,-84.834,0.098,-0.004,0.417,-0.001,0.005,0.000,0.003,-0.022,0.005,0.228,0.007,0.650,0.000,1,1,1,1,0.002,0.193,0.111,0.245,0.003,0.003,-0.003,-0.003,0.245,0.003,0.000,0
20260703_203049,case01_baseline_boxes,6,294.5,1.000,5.356,657.966,-1.437,737.941,-8.058,0.001,0.740,29.131,-0.575,-0.002,0.070,0.579,0.018,-0.002,0.208,0.043,-84.800,0.073,-0.004,0.338,-0.001,0.005,0.000,0.002,0.008,-0.004,0.173,0.005,0.630,0.000,1,1,1,1,-0.006,-0.173,0.055,-0.127,0.002,0.002,-0.002,-0.002,0.173,0.002,0.000,0
20260703_203049,case01_baseline_boxes,6,294.5,1.000,5.460,657.120,-1.437,738.019,-8.139,0.001,0.749,29.425,-0.810,-0.002,0.090,0.815,0.015,-0.001,0.214,0.043,-84.772,0.054,-0.004,0.284,-0.001,0.005,0.000,0.002,-0.001,-0.001,0.136,0.004,0.615,0.000,1,1,1,1,-0.006,-0.147,0.057,-0.284,0.002,0.002,-0.002,-0.002,0.284,0.002,0.000,0
20260703_203049,case01_baseline_boxes,6,294.5,1.000,5.564,656.266,-1.437,738.097,-8.292,0.000,0.765,29.978,-1.528,-0.002,0.159,1.536,0.019,-0.001,0.218,0.042,-84.747,0.040,-0.004,0.252,-0.001,0.003,0.000,0.003,-0.020,0.004,0.097,0.003,0.608,0.000,1,1,1,1,0.001,0.107,0.097,0.290,0.003,0.003,-0.002,-0.002,0.290,0.003,0.000,0
20260703_203049,case01_baseline_boxes,6,294.5,1.000,5.676,655.334,-1.436,738.184,-8.347,0.000,0.771,30.177,-0.550,-0.003,0.064,0.553,0.013,-0.002,0.221,0.042,-84.722,0.029,-0.005,0.248,0.000,0.004,0.000,0.002,0.006,-0.004,0.055,0.002,0.589,0.000,1,1,1,1,-0.005,-0.051,0.059,-0.151,0.002,0.002,-0.002,-0.002,0.151,0.002,0.000,0
20260703_203049,case01_baseline_boxes,6,294.5,1.000,5.776,654.493,-1.436,738.262,-8.421,0.000,0.780,30.447,-0.745,-0.002,0.081,0.749,0.012,-0.002,0.222,0.041,-84.702,0.012,-0.005,0.198,0.000,0.004,0.000,0.002,-0.001,-0.001,0.029,0.001,0.577,0.000,1,1,1,1,-0.005,-0.019,0.061,-0.268,0.002,0.002,-0.002,-0.002,0.268,0.002,0.000,0
20260703_203049,case01_baseline_boxes,6,294.5,1.000,5.884,653.576,-1.437,738.346,-8.551,0.000,0.793,30.916,-1.296,-0.002,0.135,1.303,0.015,-0.001,0.222,0.040,-84.683,0.000,-0.007,0.194,0.000,0.002,0.000,0.003,-0.015,0.003,0.006,0.000,0.569,0.000,1,1,1,1,0.001,0.014,0.086,0.318,0.003,0.003,-0.002,-0.002,0.318,0.003,0.000,0
20260703_203049,case01_baseline_boxes,6,294.5,1.000,5.996,652.619,-1.437,738.435,-8.599,-0.001,0.799,31.090,-0.481,-0.002,0.057,0.484,0.012,-0.002,0.221,0.040,-84.665,-0.013,-0.008,0.181,0.000,0.003,0.000,0.001,0.007,-0.003,-0.014,0.000,0.552,0.000,1,1,1,1,-0.004,-0.014,0.059,-0.193,0.002,0.002,-0.002,-0.002,0.193,0.002,0.000,0
20260703_203049,case01_baseline_boxes,6,294.5,1.000,6.096,651.753,-1.437,738.516,-8.669,-0.001,0.807,31.344,-0.702,-0.001,0.078,0.706,0.012,-0.001,0.218,0.039,-84.650,-0.021,-0.006,0.148,0.000,0.003,0.000,0.001,-0.001,0.000,-0.029,-0.001,0.541,0.000,1,1,1,1,-0.004,-0.013,0.059,-0.241,0.002,0.002,-0.001,-0.001,0.241,0.002,0.000,0
20260703_203049,case01_baseline_boxes,6,294.5,1.000,6.200,650.847,-1.437,738.600,-8.743,-0.001,0.815,31.610,-0.734,-0.001,0.080,0.738,0.011,0.000,0.215,0.038,-84.636,-0.031,-0.007,0.142,0.001,0.003,0.000,0.001,-0.003,0.000,-0.049,-0.001,0.531,0.000,1,1,1,1,-0.004,-0.013,0.058,-0.215,0.002,0.002,-0.001,-0.001,0.215,0.002,0.000,0
20260703_203049,case01_baseline_boxes,6,294.5,1.000,6.312,649.859,-1.437,738.692,-8.825,-0.001,0.824,31.907,-0.820,-0.001,0.092,0.825,0.015,0.000,0.211,0.038,-84.622,-0.041,-0.006,0.138,0.001,0.003,0.000,0.001,-0.002,0.000,-0.051,-0.002,0.519,0.000,1,1,1,1,-0.004,-0.012,0.057,-0.222,0.002,0.002,-0.001,-0.001,0.222,0.002,0.000,0
20260703_203049,case01_baseline_boxes,6,294.5,1.000,6.424,648.863,-1.437,738.785,-8.933,-0.001,0.836,32.301,-1.088,0.000,0.117,1.094,0.015,0.001,0.207,0.037,-84.609,-0.047,-0.007,0.131,0.001,0.001,0.000,0.001,-0.011,0.003,-0.059,-0.002,0.514,0.000,1,1,1,1,0.002,0.010,0.077,0.339,0.003,0.003,-0.002,-0.002,0.339,0.003,0.000,0
20260703_203049,case01_baseline_boxes,6,294.5,1.000,6.536,647.862,-1.437,738.879,-8.967,-0.001,0.840,32.423,-0.336,0.000,0.044,0.339,0.012,0.000,0.202,0.037,-84.597,-0.050,-0.006,0.119,0.001,0.002,0.000,0.000,0.008,-0.003,-0.070,-0.002,0.498,0.000,1,1,1,1,-0.004,-0.011,0.056,-0.226,0.002,0.002,-0.001,-0.001,0.226,0.002,0.000,0
20260703_203049,case01_baseline_boxes,6,294.5,1.000,6.644,646.889,-1.437,738.970,-9.070,-0.001,0.851,32.797,-1.035,0.001,0.113,1.041,0.014,0.001,0.197,0.036,-84.586,-0.049,-0.004,0.107,0.001,0.001,0.000,0.001,-0.011,0.003,-0.077,-0.003,0.494,0.000,1,1,1,1,0.002,0.009,0.074,0.332,0.002,0.002,-0.002,-0.002,0.332,0.002,0.000,0
20260703_203049,case01_baseline_boxes,6,294.5,1.000,6.756,645.871,-1.437,739.066,-9.099,-0.001,0.855,32.902,-0.288,0.000,0.040,0.290,0.012,0.000,0.191,0.036,-84.576,-0.052,-0.005,0.103,0.001,0.002,0.000,-0.001,0.009,-0.003,-0.083,-0.003,0.479,0.000,1,1,1,1,-0.004,-0.010,0.054,-0.226,0.002,0.002,-0.001,-0.001,0.226,0.002,0.000,0
20260703_203049,case01_baseline_boxes,6,294.5,1.000,6.856,644.956,-1.437,739.152,-9.156,-0.001,0.862,33.108,-0.569,0.000,0.065,0.572,0.011,0.001,0.187,0.035,-84.567,-0.044,-0.003,0.086,0.001,0.002,0.000,0.000,-0.001,0.000,-0.088,-0.003,0.471,0.000,1,1,1,1,-0.004,-0.010,0.053,-0.226,0.001,0.001,-0.001,-0.001,0.226,0.001,0.000,0
20260703_203049,case01_baseline_boxes,6,294.5,1.000,6.956,644.034,-1.437,739.239,-9.211,-0.001,0.868,33.307,-0.550,0.000,0.064,0.553,0.011,0.001,0.183,0.035,-84.559,-0.042,-0.004,0.081,0.001,0.002,0.000,-0.001,-0.001,0.000,-0.104,-0.003,0.463,0.000,1,1,1,1,-0.004,-0.009,0.053,-0.225,0.002,0.002,-0.001,-0.001,0.225,0.002,0.000,0
20260703_203049,case01_baseline_boxes,6,294.5,1.000,7.076,642.924,-1.437,739.343,-9.275,-0.001,0.875,33.537,-0.635,0.001,0.075,0.639,0.014,0.001,0.178,0.035,-84.550,-0.045,-0.004,0.091,0.001,0.002,0.000,-0.001,-0.001,0.000,-0.096,-0.003,0.454,0.000,1,1,1,1,-0.004,-0.009,0.052,-0.225,0.001,0.001,-0.001,-0.001,0.225,0.001,0.000,0
20260703_203049,case01_baseline_boxes,6,294.5,1.000,7.184,641.917,-1.437,739.439,-9.366,0.000,0.886,33.867,-0.913,0.001,0.101,0.918,0.014,0.001,0.175,0.034,-84.542,-0.034,-0.004,0.077,0.001,0.001,0.000,0.000,-0.010,0.003,-0.099,-0.003,0.451,0.000,1,1,1,1,0.002,0.008,0.068,0.318,0.002,0.002,-0.002,-0.002,0.318,0.002,0.000,0
20260703_203049,case01_baseline_boxes,6,294.5,1.000,7.287,640.946,-1.437,739.530,-9.415,0.000,0.891,34.045,-0.490,0.001,0.058,0.493,0.011,0.001,0.172,0.034,-84.535,-0.027,-0.003,0.069,0.000,0.001,0.000,-0.001,-0.001,0.000,-0.101,-0.003,0.444,0.000,1,1,1,1,0.002,0.008,0.067,0.315,0.002,0.002,-0.002,-0.002,0.315,0.002,0.000,0
20260703_203049,case01_baseline_boxes,6,294.5,1.000,7.388,640.001,-1.437,739.620,-9.462,0.000,0.897,34.216,-0.472,0.001,0.056,0.475,0.011,0.001,0.170,0.034,-84.529,-0.020,-0.004,0.063,0.000,0.001,0.000,-0.001,-0.001,0.000,-0.117,-0.003,0.437,0.000,1,1,1,1,0.002,0.008,0.065,0.313,0.002,0.002,-0.002,-0.002,0.313,0.002,0.000,0
20260703_203049,case01_baseline_boxes,6,294.5,1.000,7.496,638.980,-1.437,739.717,-9.477,0.000,0.899,34.271,-0.152,0.001,0.025,0.154,0.010,0.001,0.168,0.033,-84.523,-0.016,-0.004,0.065,0.000,0.001,0.000,-0.002,0.009,-0.003,-0.107,-0.004,0.424,0.000,1,1,1,1,-0.003,-0.008,0.049,-0.224,0.001,0.001,-0.001,-0.001,0.224,0.001,0.000,0
20260703_203049,case01_baseline_boxes,6,294.5,1.000,7.604,637.951,-1.437,739.815,-9.560,0.000,0.909,34.573,-0.832,0.001,0.091,0.837,0.011,0.001,0.168,0.033,-84.516,-0.009,-0.004,0.060,0.000,0.000,0.000,-0.001,-0.010,0.003,-0.113,-0.004,0.423,0.000,1,1,1,1,0.002,0.007,0.063,0.307,0.002,0.002,-0.002,-0.002,0.307,0.002,0.000,0
20260703_203049,case01_baseline_boxes,6,294.5,1.000,7.704,636.992,-1.438,739.906,-9.603,0.000,0.914,34.726,-0.423,0.001,0.050,0.426,0.009,0.001,0.167,0.033,-84.511,-0.002,-0.003,0.052,0.000,0.000,0.000,-0.001,-0.001,0.000,-0.128,-0.004,0.417,0.000,1,1,1,1,0.002,0.007,0.062,0.305,0.002,0.002,-0.002,-0.002,0.305,0.002,0.000,0
20260703_203049,case01_baseline_boxes,6,294.5,1.000,7.812,635.954,-1.438,740.005,-9.613,0.000,0.915,34.764,-0.105,0.001,0.018,0.106,0.008,0.001,0.168,0.032,-84.506,0.003,-0.003,0.051,0.000,0.001,0.000,-0.002,0.009,-0.003,-0.118,-0.004,0.405,0.000,1,1,1,1,-0.003,-0.008,0.047,-0.222,0.001,0.001,-0.001,-0.001,0.222,0.001,0.000,0
20260703_203049,case01_baseline_boxes,6,294.5,1.000,7.920,634.914,-1.438,740.104,-9.653,0.000,0.920,34.908,-0.395,0.001,0.045,0.398,0.007,0.001,0.169,0.032,-84.501,0.009,-0.004,0.050,0.000,0.001,0.000,-0.001,-0.001,0.000,-0.135,-0.004,0.399,0.000,1,1,1,1,-0.003,-0.007,0.047,-0.222,0.001,0.001,-0.001,-0.001,0.222,0.001,0.000,0
20260703_203049,case01_baseline_boxes,6,294.5,1.000,8.028,633.865,-1.438,740.204,-9.729,0.000,0.928,35.183,-0.761,0.001,0.082,0.765,0.009,0.001,0.170,0.032,-84.497,0.014,-0.002,0.042,0.000,0.000,0.000,0.000,-0.010,0.003,-0.139,-0.004,0.398,0.000,1,1,1,1,0.002,0.007,0.060,0.298,0.002,0.002,-0.001,-0.001,0.298,0.002,0.000,0
20260703_203049,case01_baseline_boxes,6,294.5,1.000,8.132,632.852,-1.437,740.300,-9.735,0.000,0.929,35.206,-0.063,0.000,0.012,0.064,0.006,0.000,0.172,0.031,-84.493,0.017,-0.002,0.038,0.000,0.001,0.000,-0.001,0.009,-0.003,-0.128,-0.004,0.387,0.000,1,1,1,1,-0.003,-0.007,0.046,-0.220,0.001,0.001,-0.001,-0.001,0.220,0.001,0.000,0
20260703_203049,case01_baseline_boxes,6,294.5,1.000,8.244,631.759,-1.437,740.405,-9.808,0.000,0.937,35.469,-0.726,0.001,0.077,0.730,0.007,0.001,0.174,0.031,-84.489,0.022,-0.003,0.038,0.000,0.000,0.000,0.000,-0.010,0.003,-0.131,-0.004,0.387,0.000,1,1,1,1,0.002,0.006,0.058,0.293,0.002,0.002,-0.001,-0.001,0.293,0.002,0.000,0
20260703_203049,case01_baseline_boxes,6,294.5,1.000,8.352,630.702,-1.437,740.506,-9.812,0.000,0.938,35.483,-0.038,0.000,0.008,0.038,0.004,0.000,0.176,0.031,-84.486,0.024,-0.002,0.031,0.000,0.001,0.000,-0.001,0.009,-0.003,-0.136,-0.004,0.376,0.000,1,1,1,1,-0.003,-0.007,0.044,-0.219,0.001,0.001,-0.001,-0.001,0.219,0.001,0.000,0
20260703_203049,case01_baseline_boxes,6,294.5,1.000,8.464,629.597,-1.437,740.611,-9.881,0.000,0.945,35.734,-0.694,0.000,0.072,0.698,0.005,0.001,0.179,0.031,-84.483,0.026,-0.003,0.031,0.000,0.000,0.000,0.000,-0.010,0.003,-0.142,-0.005,0.376,0.000,1,1,1,1,0.002,0.006,0.056,0.288,0.002,0.002,-0.001,-0.001,0.288,0.002,0.000,0
20260703_203049,case01_baseline_boxes,6,294.5,1.000,8.572,628.531,-1.437,740.713,-9.882,0.000,0.945,35.739,-0.014,0.000,0.003,0.014,0.002,0.000,0.182,0.030,-84.481,0.026,-0.002,0.023,0.000,0.001,0.000,-0.001,0.009,-0.003,-0.147,-0.005,0.366,0.000,1,1,1,1,-0.003,-0.006,0.043,-0.217,0.001,0.001,-0.001,-0.001,0.217,0.001,0.000,0
20260703_203049,case01_baseline_boxes,6,294.5,1.000,8.672,627.538,-1.437,740.808,-9.913,0.000,0.949,35.850,-0.305,0.000,0.032,0.307,0.003,0.000,0.184,0.030,-84.479,0.023,-0.002,0.019,0.000,0.001,0.000,0.000,-0.001,0.000,-0.146,-0.005,0.362,0.000,1,1,1,1,-0.003,-0.006,0.043,-0.216,0.001,0.001,-0.001,-0.001,0.216,0.001,0.000,0
20260703_203049,case01_baseline_boxes,6,294.5,1.000,8.784,626.426,-1.437,740.915,-9.978,0.000,0.955,36.085,-0.652,0.000,0.066,0.655,0.003,0.001,0.187,0.030,-84.477,0.026,-0.002,0.019,0.000,0.000,0.000,0.001,-0.010,0.003,-0.149,-0.005,0.362,0.000,1,1,1,1,0.002,0.006,0.054,0.282,0.002,0.002,-0.001,-0.001,0.282,0.002,0.000,0
20260703_203049,case01_baseline_boxes,6,294.5,1.000,8.884,625.428,-1.437,741.010,-10.006,0.000,0.958,36.187,-0.282,0.000,0.028,0.284,0.001,0.000,0.189,0.030,-84.476,0.022,-0.002,0.013,0.000,0.000,0.000,0.000,0.000,0.000,-0.153,-0.005,0.358,0.000,1,1,1,1,0.002,0.006,0.054,0.280,0.002,0.002,-0.001,-0.001,0.280,0.002,0.000,0
20260703_203049,case01_baseline_boxes,6,294.5,1.000,8.996,624.309,-1.437,741.117,-10.004,0.000,0.958,36.178,0.025,0.000,-0.004,-0.026,-0.002,0.000,0.191,0.030,-84.475,0.022,-0.002,0.010,0.000,0.001,0.000,0.000,0.008,-0.003,-0.157,-0.005,0.349,0.000,1,1,1,1,-0.003,-0.006,0.041,-0.214,0.001,0.001,-0.001,-0.001,0.214,0.001,0.000,0
20260703_203049,case01_baseline_boxes,6,294.5,1.000,9.132,622.943,-1.437,741.248,-10.040,0.000,0.961,36.311,-0.367,0.000,0.034,0.369,-0.002,0.000,0.193,0.029,-84.474,0.023,-0.002,0.007,0.000,0.000,0.000,0.001,-0.001,0.000,-0.174,-0.005,0.343,0.000,1,1,1,1,-0.003,-0.006,0.041,-0.212,0.001,0.002,-0.001,-0.001,0.212,0.002,0.000,0
20260703_203049,case01_baseline_boxes,6,294.5,1.000,9.240,621.854,-1.437,741.352,-10.066,0.000,0.963,36.402,-0.252,0.000,0.023,0.253,-0.001,0.000,0.195,0.029,-84.474,0.015,-0.003,0.004,0.000,0.000,0.000,0.000,0.000,0.000,-0.173,-0.006,0.340,0.000,1,1,1,1,-0.003,-0.006,0.041,-0.212,0.001,0.001,-0.001,-0.001,0.212,0.001,0.000,0
20260703_203049,case01_baseline_boxes,6,294.5,1.000,9.351,620.727,-1.437,741.460,-10.095,0.000,0.966,36.507,-0.291,0.000,0.026,0.292,-0.002,0.000,0.196,0.029,-84.474,0.012,-0.001,-0.005,0.000,0.000,0.000,0.001,-0.001,0.000,-0.165,-0.005,0.335,0.000,1,1,1,1,-0.003,-0.006,0.040,-0.211,0.001,0.001,-0.001,-0.001,0.211,0.001,0.000,0
20260703_203049,case01_baseline_boxes,6,294.5,1.000,9.456,619.669,-1.437,741.562,-10.118,0.000,0.968,36.591,-0.234,0.000,0.019,0.234,-0.004,0.000,0.197,0.029,-84.475,0.008,-0.002,-0.004,0.000,0.000,0.000,0.000,-0.001,0.000,-0.185,-0.005,0.332,0.000,1,1,1,1,-0.003,-0.006,0.040,-0.210,0.002,0.002,-0.001,-0.001,0.210,0.002,0.000,0
20260703_203049,case01_baseline_boxes,6,294.5,1.000,9.580,618.415,-1.437,741.682,-10.145,0.000,0.970,36.689,-0.269,0.000,0.023,0.270,-0.003,0.000,0.197,0.029,-84.475,0.005,-0.002,-0.009,0.000,0.000,0.000,0.001,-0.001,0.000,-0.174,-0.006,0.328,0.000,1,1,1,1,-0.003,-0.006,0.039,-0.209,0.001,0.001,-0.001,-0.001,0.209,0.001,0.000,0
20260703_203049,case01_baseline_boxes,6,294.5,1.000,9.692,617.275,-1.437,741.791,-10.171,0.000,0.972,36.782,-0.259,0.000,0.020,0.260,-0.005,0.000,0.197,0.029,-84.477,0.003,-0.001,-0.016,0.000,0.000,0.000,0.001,-0.001,0.000,-0.182,-0.006,0.324,0.000,1,1,1,1,-0.003,-0.005,0.039,-0.208,0.001,0.001,-0.001,-0.001,0.208,0.001,0.000,0
20260703_203049,case01_baseline_boxes,6,294.5,1.000,9.796,616.214,-1.437,741.892,-10.192,0.000,0.974,36.857,-0.208,0.000,0.016,0.208,-0.004,0.000,0.197,0.028,-84.478,-0.002,-0.002,-0.014,0.000,0.000,0.000,0.000,0.000,0.000,-0.180,-0.006,0.321,0.000,1,1,1,1,-0.002,-0.005,0.039,-0.208,0.001,0.001,-0.001,-0.001,0.208,0.001,0.000,0
20260703_203049,case01_baseline_boxes,6,294.5,1.000,9.908,615.070,-1.437,742.001,-10.245,0.000,0.978,37.050,-0.532,0.000,0.048,0.534,-0.004,0.000,0.197,0.028,-84.481,-0.004,-0.001,-0.021,0.000,-0.001,0.000,0.001,-0.009,0.003,-0.184,-0.006,0.323,0.000,1,1,1,1,0.002,0.005,0.049,0.263,0.002,0.002,-0.001,-0.001,0.263,0.002,0.000,0
20260703_203049,case01_baseline_boxes,6,294.5,1.000,10.008,614.044,-1.437,742.099,-10.264,0.000,0.980,37.119,-0.192,0.000,0.013,0.193,-0.005,0.000,0.196,0.028,-84.483,-0.005,-0.002,-0.020,0.000,-0.001,0.000,0.000,0.000,0.000,-0.182,-0.006,0.320,0.000,1,1,1,1,0.002,0.005,0.048,0.262,0.002,0.002,-0.001,-0.001,0.262,0.002,0.000,0
20260703_203049,case01_baseline_boxes,6,294.5,1.000,10.140,612.691,-1.437,742.228,-10.257,0.000,0.978,37.093,0.070,0.000,-0.016,-0.071,-0.009,0.000,0.196,0.028,-84.485,-0.008,-0.002,-0.028,0.000,0.000,0.000,0.000,0.008,-0.003,-0.199,-0.007,0.312,0.000,1,1,1,1,-0.002,-0.005,0.038,-0.205,0.001,0.001,-0.001,-0.001,0.205,0.001,0.000,0
20260703_203049,case01_baseline_boxes,6,294.5,1.000,10.252,611.539,-1.437,742.338,-10.279,0.000,0.980,37.170,-0.213,0.000,0.013,0.214,-0.007,0.000,0.195,0.028,-84.489,-0.011,-0.001,-0.031,0.000,0.000,0.000,0.000,-0.001,0.000,-0.204,-0.006,0.309,0.000,1,1,1,1,-0.002,-0.005,0.037,-0.205,0.001,0.001,-0.001,-0.001,0.205,0.001,0.000,0
20260703_203049,case01_baseline_boxes,6,294.5,1.000,10.352,610.509,-1.437,742.436,-10.296,0.000,0.981,37.232,-0.171,0.000,0.011,0.172,-0.006,0.000,0.194,0.028,-84.491,-0.009,-0.001,-0.029,0.000,0.000,0.000,0.000,0.000,0.000,-0.204,-0.006,0.306,0.000,1,1,1,1,-0.002,-0.005,0.037,-0.204,0.001,0.001,-0.001,-0.001,0.204,0.001,0.000,0
20260703_203049,case01_baseline_boxes,6,294.5,1.000,10.452,609.477,-1.437,742.534,-10.312,0.000,0.982,37.291,-0.165,0.000,0.009,0.165,-0.007,0.000,0.193,0.028,-84.495,-0.009,-0.002,-0.031,0.000,0.000,0.000,0.000,-0.001,0.000,-0.205,-0.007,0.304,0.000,1,1,1,1,-0.002,-0.005,0.037,-0.204,0.001,0.001,-0.001,-0.001,0.204,0.001,0.000,0
20260703_203049,case01_baseline_boxes,6,294.5,1.000,10.556,608.399,-1.437,742.637,-10.328,0.000,0.982,37.349,-0.160,0.000,0.008,0.160,-0.007,0.000,0.192,0.027,-84.498,-0.009,-0.002,-0.034,0.000,0.000,0.000,0.000,0.000,0.000,-0.206,-0.007,0.302,0.000,1,1,1,1,-0.002,-0.005,0.036,-0.203,0.001,0.001,-0.001,-0.001,0.203,0.001,0.000,0
20260703_203049,case01_baseline_boxes,6,294.5,1.000,10.664,607.281,-1.437,742.743,-10.375,0.000,0.986,37.520,-0.473,0.000,0.039,0.475,-0.007,0.001,0.191,0.027,-84.502,-0.009,-0.001,-0.040,0.000,-0.001,0.000,0.000,-0.009,0.003,-0.208,-0.007,0.304,0.000,1,1,1,1,0.002,0.005,0.046,0.254,0.002,0.002,-0.001,-0.001,0.254,0.002,0.000,0
20260703_203049,case01_baseline_boxes,6,294.5,1.000,10.772,606.162,-1.437,742.850,-10.361,0.000,0.984,37.469,0.141,0.000,-0.023,-0.142,-0.010,0.000,0.190,0.027,-84.506,-0.009,-0.001,-0.043,0.000,0.000,0.000,-0.001,0.008,-0.003,-0.214,-0.007,0.297,0.000,1,1,1,1,-0.002,-0.005,0.036,-0.202,0.001,0.001,-0.001,-0.001,0.202,0.001,0.000,0
20260703_203049,case01_baseline_boxes,6,294.5,1.000,10.880,605.040,-1.437,742.956,-10.376,0.000,0.984,37.520,-0.143,0.000,0.005,0.143,-0.009,0.000,0.189,0.027,-84.511,-0.008,-0.002,-0.043,0.000,0.000,0.000,0.000,0.000,0.000,-0.214,-0.007,0.295,0.000,1,1,1,1,-0.002,-0.005,0.036,-0.201,0.001,0.001,-0.001,-0.001,0.201,0.001,0.000,0
20260703_203049,case01_baseline_boxes,6,294.5,1.000,10.988,603.919,-1.437,743.062,-10.421,0.000,0.988,37.684,-0.452,0.000,0.035,0.453,-0.008,0.001,0.189,0.027,-84.516,-0.007,0.000,-0.050,0.000,-0.001,0.000,0.000,-0.009,0.003,-0.216,-0.007,0.297,0.000,1,1,1,1,0.002,0.005,0.045,0.251,0.002,0.002,-0.001,-0.001,0.251,0.002,0.000,0
20260703_203049,case01_baseline_boxes,6,294.5,1.000,11.096,602.796,-1.437,743.169,-10.406,0.000,0.985,37.628,0.154,0.000,-0.027,-0.156,-0.012,0.000,0.188,0.027,-84.521,-0.006,-0.001,-0.050,0.000,0.000,0.000,-0.001,0.008,-0.003,-0.221,-0.007,0.290,0.000,1,1,1,1,-0.002,-0.005,0.035,-0.200,0.001,0.001,-0.001,-0.001,0.200,0.001,0.000,0
20260703_203049,case01_baseline_boxes,6,294.5,1.000,11.200,601.712,-1.437,743.271,-10.418,0.000,0.986,37.674,-0.128,0.000,0.004,0.128,-0.009,0.000,0.187,0.027,-84.526,-0.005,-0.001,-0.051,0.000,0.000,0.000,0.000,0.000,0.000,-0.217,-0.007,0.289,0.000,1,1,1,1,-0.002,-0.005,0.035,-0.199,0.001,0.001,-0.001,-0.001,0.199,0.001,0.000,0
20260703_203049,case01_baseline_boxes,6,294.5,1.000,11.304,600.623,-1.437,743.374,-10.462,0.000,0.989,37.830,-0.433,0.000,0.031,0.434,-0.010,0.001,0.187,0.027,-84.531,-0.003,-0.001,-0.055,0.000,-0.001,0.000,0.000,-0.009,0.003,-0.222,-0.007,0.291,0.000,1,1,1,1,0.002,0.004,0.044,0.247,0.002,0.002,-0.001,-0.001,0.247,0.002,0.000,0
20260703_203049,case01_baseline_boxes,6,294.5,1.000,11.408,599.538,-1.437,743.477,-10.474,0.000,0.989,37.873,-0.119,0.000,0.001,0.118,-0.010,0.000,0.187,0.027,-84.537,0.000,-0.001,-0.057,0.000,-0.001,0.000,0.000,0.000,0.000,-0.224,-0.008,0.289,0.000,1,1,1,1,0.002,0.004,0.044,0.246,0.002,0.002,-0.001,-0.001,0.246,0.002,0.000,0
20260703_203049,case01_baseline_boxes,6,294.5,1.000,11.516,598.408,-1.437,743.583,-10.457,0.000,0.986,37.811,0.169,0.000,-0.031,-0.172,-0.015,0.000,0.187,0.027,-84.543,0.001,-0.001,-0.062,0.000,-0.001,0.000,-0.001,0.007,-0.003,-0.230,-0.008,0.283,0.000,1,1,1,1,-0.002,-0.005,0.034,-0.197,0.001,0.001,0.000,0.000,0.197,0.001,0.000,0
20260703_203049,case01_baseline_boxes,6,294.5,1.000,11.624,597.274,-1.437,743.690,-10.498,0.000,0.988,37.961,-0.417,0.000,0.028,0.417,-0.012,0.001,0.187,0.026,-84.550,0.001,-0.001,-0.066,0.000,-0.001,0.000,0.000,-0.009,0.003,-0.232,-0.008,0.286,0.000,1,1,1,1,0.002,0.004,0.043,0.244,0.002,0.002,-0.001,-0.001,0.244,0.002,0.000,0
20260703_203049,case01_baseline_boxes,6,294.5,1.000,11.727,596.187,-1.437,743.792,-10.509,0.000,0.988,37.999,-0.106,0.000,-0.002,0.106,-0.012,0.000,0.187,0.026,-84.556,0.002,0.000,-0.066,0.000,-0.002,0.000,0.000,0.000,0.000,-0.230,-0.008,0.284,0.000,1,1,1,1,0.002,0.004,0.043,0.243,0.002,0.002,-0.001,-0.001,0.243,0.002,0.000,0
20260703_203049,case01_baseline_boxes,6,294.5,1.000,11.828,595.133,-1.437,743.891,-10.519,0.000,0.988,38.036,-0.103,0.000,-0.003,0.102,-0.013,0.000,0.188,0.026,-84.563,0.003,-0.001,-0.066,0.000,-0.002,0.000,0.000,0.000,0.000,-0.229,-0.008,0.283,0.000,1,1,1,1,0.002,0.004,0.043,0.243,0.002,0.002,-0.001,-0.001,0.243,0.002,0.000,0
20260703_203049,case01_baseline_boxes,6,294.5,1.000,11.936,593.998,-1.437,743.998,-10.501,0.000,0.985,37.969,0.182,0.000,-0.032,-0.185,-0.015,0.000,0.188,0.026,-84.570,0.004,-0.001,-0.072,0.000,-0.001,0.000,-0.001,0.008,-0.003,-0.232,-0.008,0.277,0.000,1,1,1,1,-0.002,-0.005,0.034,-0.195,0.001,0.001,0.000,0.000,0.195,0.001,0.000,0
20260703_203049,case01_baseline_boxes,6,294.5,1.000,12.044,592.862,-1.437,744.104,-10.541,0.000,0.987,38.112,-0.396,0.000,0.024,0.397,-0.014,0.001,0.189,0.026,-84.578,0.005,-0.001,-0.075,0.000,-0.002,0.000,0.000,-0.008,0.003,-0.236,-0.008,0.279,0.000,1,1,1,1,0.001,0.004,0.042,0.241,0.002,0.002,-0.001,-0.001,0.241,0.002,0.000,0
20260703_203049,case01_baseline_boxes,6,294.5,1.000,12.144,591.808,-1.437,744.203,-10.550,0.000,0.987,38.145,-0.092,0.000,-0.006,0.091,-0.015,0.000,0.189,0.026,-84.585,0.005,-0.001,-0.072,0.000,-0.002,0.000,0.000,0.000,0.000,-0.236,-0.008,0.278,0.000,1,1,1,1,0.001,0.004,0.042,0.240,0.002,0.002,-0.001,-0.001,0.240,0.002,0.000,0
20260703_203049,case01_baseline_boxes,6,294.5,1.000,12.244,590.752,-1.437,744.301,-10.559,0.000,0.986,38.177,-0.089,0.000,-0.008,0.088,-0.016,0.000,0.190,0.026,-84.592,0.006,-0.001,-0.075,0.000,-0.002,0.000,0.000,-0.001,0.000,-0.263,-0.008,0.277,0.000,1,1,1,1,0.001,0.004,0.042,0.239,0.002,0.002,-0.001,-0.001,0.239,0.002,0.000,0
20260703_203049,case01_baseline_boxes,6,294.5,1.000,12.348,589.659,-1.437,744.403,-10.567,0.000,0.985,38.208,-0.086,0.000,-0.007,0.085,-0.015,0.000,0.190,0.026,-84.600,0.005,0.000,-0.081,0.000,-0.002,0.000,0.000,0.000,0.000,-0.260,-0.009,0.276,0.000,1,1,1,1,0.001,0.004,0.042,0.238,0.002,0.002,-0.001,-0.001,0.238,0.002,0.000,0
20260703_203049,case01_baseline_boxes,6,294.5,1.000,12.448,588.602,-1.437,744.502,-10.576,0.000,0.984,38.237,-0.083,0.000,-0.008,0.082,-0.015,0.000,0.191,0.026,-84.608,0.006,-0.001,-0.081,0.000,-0.002,0.000,0.000,0.000,0.000,-0.259,-0.009,0.274,0.000,1,1,1,1,0.001,0.004,0.042,0.238,0.002,0.002,-0.001,-0.001,0.238,0.002,0.000,0
20260703_203049,case01_baseline_boxes,6,294.5,1.000,12.556,587.461,-1.437,744.608,-10.556,0.000,0.980,38.165,0.198,0.000,-0.038,-0.201,-0.020,0.000,0.192,0.026,-84.617,0.008,-0.001,-0.089,0.000,-0.001,0.000,0.000,0.007,-0.003,-0.263,-0.009,0.269,0.000,1,1,1,1,-0.002,-0.004,0.033,-0.192,0.002,0.002,0.000,0.000,0.192,0.002,0.000,0
20260703_203049,case01_baseline_boxes,6,294.5,1.000,12.656,586.403,-1.437,744.706,-10.564,0.000,0.979,38.193,-0.078,0.000,-0.010,0.077,-0.018,0.000,0.192,0.026,-84.626,0.007,-0.001,-0.086,0.000,-0.001,0.000,0.000,-0.001,0.000,-0.263,-0.009,0.268,0.000,1,1,1,1,-0.002,-0.004,0.033,-0.192,0.001,0.001,0.000,0.000,0.192,0.001,0.000,0
20260703_203049,case01_baseline_boxes,6,294.5,1.000,12.764,585.260,-1.437,744.812,-10.601,0.000,0.981,38.325,-0.368,0.000,0.016,0.368,-0.018,0.000,0.193,0.026,-84.636,0.005,-0.001,-0.096,0.000,-0.002,0.000,0.001,-0.008,0.003,-0.264,-0.009,0.271,0.000,1,1,1,1,0.001,0.004,0.041,0.235,0.002,0.002,-0.001,-0.001,0.235,0.002,0.000,0
20260703_203049,case01_baseline_boxes,6,294.5,1.000,12.864,584.201,-1.437,744.910,-10.608,0.000,0.980,38.351,-0.072,0.000,-0.014,0.071,-0.021,0.000,0.193,0.026,-84.645,0.006,-0.001,-0.093,0.000,-0.002,0.000,0.000,-0.001,0.000,-0.264,-0.010,0.270,0.000,1,1,1,1,0.001,0.004,0.041,0.234,0.002,0.002,-0.001,-0.001,0.234,0.002,0.000,0
20260703_203049,case01_baseline_boxes,6,294.5,1.000,12.972,583.060,-1.437,745.015,-10.587,0.000,0.975,38.275,0.206,0.000,-0.046,-0.209,-0.027,0.000,0.194,0.026,-84.656,0.006,0.000,-0.109,0.000,-0.001,0.000,0.000,0.006,-0.002,-0.293,-0.010,0.264,0.000,1,1,1,1,-0.002,-0.004,0.032,-0.190,0.002,0.002,0.000,0.000,0.190,0.002,0.000,0
20260703_203049,case01_baseline_boxes,6,294.5,1.000,13.072,581.999,-1.437,745.113,-10.594,0.000,0.973,38.299,-0.069,0.000,-0.018,0.067,-0.024,0.000,0.195,0.026,-84.667,0.005,0.000,-0.108,0.000,-0.002,0.000,0.000,-0.001,0.000,-0.288,-0.010,0.263,0.000,1,1,1,1,-0.002,-0.004,0.032,-0.190,0.001,0.001,0.000,0.000,0.190,0.001,0.000,0
20260703_203049,case01_baseline_boxes,6,294.5,1.000,13.176,580.892,-1.437,745.214,-10.601,0.000,0.972,38.322,-0.066,0.000,-0.016,0.064,-0.022,0.000,0.195,0.026,-84.678,0.004,-0.001,-0.117,0.000,-0.002,0.000,0.000,-0.001,0.000,-0.308,-0.009,0.262,0.000,1,1,1,1,-0.002,-0.004,0.032,-0.189,0.002,0.002,0.000,0.000,0.189,0.002,0.000,0
20260703_203049,case01_baseline_boxes,6,294.5,1.000,13.276,579.830,-1.437,745.311,-10.607,0.000,0.970,38.345,-0.064,0.000,-0.015,0.062,-0.021,0.000,0.195,0.026,-84.690,0.003,0.000,-0.115,0.000,-0.002,0.000,0.000,0.000,0.000,-0.299,-0.010,0.262,0.000,1,1,1,1,-0.002,-0.004,0.032,-0.189,0.002,0.002,0.000,0.000,0.189,0.002,0.000,0
20260703_203049,case01_baseline_boxes,6,294.5,1.000,13.388,578.642,-1.437,745.420,-10.642,0.000,0.971,38.470,-0.348,0.000,0.012,0.347,-0.020,0.000,0.196,0.026,-84.703,0.004,0.000,-0.128,0.000,-0.002,0.000,0.001,-0.008,0.002,-0.292,-0.010,0.265,0.000,1,1,1,1,0.001,0.004,0.040,0.231,0.002,0.002,-0.001,-0.001,0.231,0.002,0.000,0
20260703_203049,case01_baseline_boxes,6,294.5,1.000,13.496,577.496,-1.437,745.524,-10.620,0.000,0.967,38.391,0.215,0.000,-0.042,-0.218,-0.022,0.000,0.196,0.025,-84.715,0.003,-0.001,-0.120,0.000,-0.002,0.000,0.000,0.008,-0.002,-0.290,-0.010,0.260,0.000,1,1,1,1,-0.002,-0.004,0.032,-0.188,0.002,0.002,0.000,0.000,0.188,0.002,0.000,0
20260703_203049,case01_baseline_boxes,6,294.5,1.000,13.603,576.349,-1.437,745.629,-10.654,0.000,0.968,38.514,-0.342,0.000,0.011,0.341,-0.021,0.000,0.196,0.025,-84.726,0.001,0.000,-0.119,0.000,-0.002,0.000,0.001,-0.007,0.002,-0.286,-0.010,0.263,0.000,1,1,1,1,0.001,0.004,0.040,0.230,0.002,0.002,-0.001,-0.001,0.230,0.002,0.000,0
20260703_203049,case01_baseline_boxes,6,294.5,1.000,13.708,575.241,-1.437,745.729,-10.660,0.000,0.967,38.533,-0.054,0.000,-0.015,0.053,-0.019,0.000,0.196,0.025,-84.738,0.000,0.000,-0.114,0.000,-0.002,0.000,0.000,0.000,0.000,-0.282,-0.009,0.262,0.000,1,1,1,1,0.001,0.004,0.040,0.230,0.002,0.002,-0.001,-0.001,0.230,0.002,0.000,0
20260703_203049,case01_baseline_boxes,6,294.5,1.000,13.812,574.131,-1.437,745.830,-10.638,0.000,0.962,38.453,0.221,0.000,-0.043,-0.224,-0.023,0.000,0.196,0.025,-84.749,0.000,-0.001,-0.113,0.000,-0.001,0.000,0.000,0.008,-0.002,-0.280,-0.009,0.257,0.000,1,1,1,1,-0.002,-0.004,0.032,-0.187,0.001,0.001,0.000,0.000,0.187,0.001,0.000,0
20260703_203049,case01_baseline_boxes,6,294.5,1.000,13.916,573.021,-1.437,745.930,-10.643,0.000,0.961,38.471,-0.051,0.000,-0.016,0.049,-0.020,0.000,0.196,0.025,-84.760,0.000,-0.001,-0.112,0.000,-0.002,0.000,0.000,0.000,0.000,-0.278,-0.009,0.256,0.000,1,1,1,1,-0.002,-0.004,0.032,-0.187,0.001,0.001,0.000,0.000,0.187,0.001,0.000,0
20260703_203049,case01_baseline_boxes,6,294.5,1.000,14.028,571.828,-1.437,746.038,-10.676,0.000,0.962,38.590,-0.332,0.000,0.008,0.331,-0.022,0.000,0.196,0.025,-84.773,-0.002,0.000,-0.122,0.000,-0.002,0.000,0.000,-0.008,0.002,-0.281,-0.009,0.260,0.000,1,1,1,1,0.001,0.004,0.040,0.228,0.002,0.002,-0.001,-0.001,0.228,0.002,0.000,0
20260703_203049,case01_baseline_boxes,6,294.5,1.000,14.132,570.719,-1.437,746.138,-10.654,0.000,0.957,38.508,0.224,0.000,-0.046,-0.228,-0.025,0.000,0.196,0.025,-84.784,-0.002,0.000,-0.115,0.000,-0.002,0.000,0.000,0.007,-0.002,-0.284,-0.010,0.255,0.000,1,1,1,1,-0.002,-0.004,0.031,-0.186,0.001,0.001,0.000,0.000,0.186,0.001,0.000,0
20260703_203049,case01_baseline_boxes,6,294.5,1.000,14.236,569.610,-1.437,746.237,-10.658,0.000,0.955,38.524,-0.046,0.000,-0.018,0.044,-0.022,0.000,0.195,0.025,-84.796,-0.001,-0.001,-0.116,0.000,-0.002,0.000,0.000,0.000,0.000,-0.284,-0.010,0.254,0.000,1,1,1,1,-0.002,-0.004,0.031,-0.186,0.001,0.001,0.000,0.000,0.186,0.001,0.000,0
20260703_203049,case01_baseline_boxes,6,294.5,1.000,14.344,568.456,-1.437,746.341,-10.691,0.000,0.956,38.640,-0.325,0.000,0.004,0.324,-0.025,0.000,0.195,0.025,-84.808,-0.003,0.000,-0.124,0.000,-0.002,0.000,0.000,-0.008,0.002,-0.287,-0.010,0.258,0.000,1,1,1,1,0.001,0.004,0.039,0.227,0.002,0.002,-0.001,-0.001,0.227,0.002,0.000,0
20260703_203049,case01_baseline_boxes,6,294.5,1.000,14.448,567.345,-1.437,746.440,-10.695,0.000,0.954,38.655,-0.043,0.000,-0.021,0.041,-0.024,0.000,0.195,0.025,-84.821,-0.003,0.000,-0.124,0.000,-0.002,0.000,0.000,-0.001,0.000,-0.315,-0.010,0.257,0.000,1,1,1,1,0.001,0.004,0.039,0.226,0.002,0.002,-0.001,-0.001,0.226,0.002,0.000,0
20260703_203049,case01_baseline_boxes,6,294.5,1.000,14.556,566.195,-1.437,746.542,-10.672,0.000,0.949,38.571,0.229,0.000,-0.048,-0.233,-0.027,0.000,0.195,0.025,-84.833,-0.002,-0.001,-0.129,0.000,-0.002,0.000,0.000,0.007,-0.002,-0.317,-0.010,0.252,0.000,1,1,1,1,-0.002,-0.004,0.031,-0.185,0.002,0.002,0.000,0.000,0.185,0.002,0.000,0
20260703_203049,case01_baseline_boxes,6,294.5,1.000,14.660,565.082,-1.437,746.641,-10.676,0.000,0.947,38.585,-0.040,0.000,-0.020,0.038,-0.024,0.000,0.194,0.025,-84.846,-0.002,0.000,-0.128,0.000,-0.002,0.000,0.000,0.000,0.000,-0.314,-0.011,0.252,0.000,1,1,1,1,-0.002,-0.004,0.031,-0.185,0.002,0.002,0.000,0.000,0.185,0.002,0.000,0
20260703_203049,case01_baseline_boxes,6,294.5,1.000,14.764,563.968,-1.437,746.739,-10.708,0.000,0.947,38.698,-0.316,0.000,0.002,0.315,-0.027,0.000,0.194,0.025,-84.859,-0.002,0.000,-0.132,0.000,-0.003,0.000,0.000,-0.008,0.002,-0.314,-0.011,0.255,0.000,1,1,1,1,0.001,0.004,0.039,0.225,0.002,0.002,-0.001,-0.001,0.225,0.002,0.000,0
20260703_203049,case01_baseline_boxes,6,294.5,1.000,14.868,562.857,-1.437,746.838,-10.711,0.000,0.945,38.711,-0.037,0.000,-0.022,0.035,-0.026,0.000,0.194,0.025,-84.873,-0.001,0.000,-0.135,0.000,-0.003,0.000,0.000,0.000,0.000,-0.313,-0.011,0.255,0.000,1,1,1,1,0.001,0.004,0.039,0.225,0.002,0.002,-0.001,-0.001,0.225,0.002,0.000,0
20260703_203049,case01_baseline_boxes,6,294.5,1.000,14.980,561.662,-1.437,746.943,-10.688,0.000,0.940,38.626,0.233,0.000,-0.051,-0.237,-0.030,0.000,0.194,0.025,-84.887,-0.002,-0.001,-0.146,0.000,-0.002,0.000,-0.001,0.007,-0.002,-0.318,-0.011,0.250,0.000,1,1,1,1,-0.002,-0.004,0.031,-0.184,0.002,0.002,0.000,0.000,0.184,0.002,0.000,0
20260703_203049,case01_baseline_boxes,6,294.5,1.000,15.088,560.503,-1.437,747.044,-10.719,0.000,0.940,38.737,-0.311,0.000,0.000,0.310,-0.028,0.001,0.194,0.025,-84.902,0.000,0.000,-0.147,0.000,-0.003,0.000,0.000,-0.008,0.002,-0.318,-0.011,0.254,0.000,1,1,1,1,0.001,0.004,0.039,0.224,0.002,0.002,-0.001,-0.001,0.224,0.002,0.000,0
20260703_203049,case01_baseline_boxes,6,294.5,1.000,15.192,559.391,-1.437,747.142,-10.696,0.000,0.934,38.651,0.235,0.000,-0.052,-0.239,-0.031,0.000,0.194,0.025,-84.916,0.000,0.000,-0.143,0.000,-0.002,0.000,-0.001,0.007,-0.002,-0.322,-0.011,0.249,0.000,1,1,1,1,-0.002,-0.004,0.031,-0.183,0.002,0.002,0.000,0.000,0.183,0.002,0.000,0
20260703_203049,case01_baseline_boxes,6,294.5,1.000,15.299,558.236,-1.437,747.243,-10.699,0.000,0.932,38.662,-0.033,0.000,-0.025,0.031,-0.028,0.000,0.194,0.025,-84.931,0.001,-0.001,-0.150,0.000,-0.002,0.000,0.000,0.000,0.000,-0.318,-0.011,0.249,0.000,1,1,1,1,-0.002,-0.004,0.031,-0.183,0.001,0.001,0.000,0.000,0.183,0.001,0.000,0
20260703_203049,case01_baseline_boxes,6,294.5,1.000,15.408,557.076,-1.437,747.343,-10.730,0.000,0.932,38.772,-0.306,0.000,-0.003,0.305,-0.030,0.001,0.194,0.025,-84.947,0.000,0.000,-0.156,0.000,-0.003,0.000,0.000,-0.008,0.002,-0.320,-0.011,0.252,0.000,1,1,1,1,0.001,0.004,0.038,0.223,0.002,0.002,-0.001,-0.001,0.223,0.002,0.000,0
20260703_203049,case01_baseline_boxes,6,294.5,1.000,15.516,555.918,-1.437,747.444,-10.706,0.000,0.926,38.685,0.238,0.000,-0.053,-0.242,-0.032,0.000,0.194,0.025,-84.963,0.002,0.000,-0.157,0.000,-0.002,0.000,0.000,0.007,-0.002,-0.354,-0.011,0.248,0.000,1,1,1,1,-0.002,-0.004,0.031,-0.183,0.002,0.002,0.000,0.000,0.183,0.002,0.000,0
20260703_203049,case01_baseline_boxes,6,294.5,1.000,15.624,554.760,-1.437,747.544,-10.736,0.000,0.926,38.794,-0.303,0.000,-0.004,0.302,-0.031,0.000,0.194,0.025,-84.979,0.002,-0.001,-0.159,0.000,-0.003,0.000,0.000,-0.008,0.002,-0.357,-0.011,0.251,0.000,1,1,1,1,0.001,0.004,0.038,0.223,0.003,0.003,-0.001,-0.001,0.223,0.003,0.000,0
20260703_203049,case01_baseline_boxes,6,294.5,1.000,15.732,553.602,-1.437,747.644,-10.712,0.000,0.921,38.706,0.240,0.000,-0.054,-0.243,-0.033,0.000,0.195,0.025,-84.995,0.002,0.000,-0.163,0.000,-0.002,0.000,0.000,0.007,-0.002,-0.359,-0.011,0.247,0.000,1,1,1,1,-0.002,-0.004,0.030,-0.182,0.002,0.002,0.000,0.000,0.182,0.002,0.000,0
20260703_203049,case01_baseline_boxes,6,294.5,1.000,15.840,552.444,-1.437,747.743,-10.715,0.000,0.918,38.715,-0.028,0.000,-0.027,0.025,-0.030,0.000,0.195,0.025,-85.011,0.002,-0.001,-0.163,0.000,-0.002,0.000,0.000,0.000,0.000,-0.355,-0.012,0.247,0.000,1,1,1,1,-0.002,-0.004,0.030,-0.182,0.002,0.002,0.000,0.000,0.182,0.002,0.000,0
20260703_203049,case01_baseline_boxes,6,294.5,1.000,15.948,551.286,-1.437,747.842,-10.745,0.000,0.917,38.822,-0.299,0.000,-0.006,0.297,-0.032,0.001,0.195,0.025,-85.028,0.002,0.001,-0.168,0.000,-0.003,0.000,0.000,-0.008,0.002,-0.355,-0.012,0.250,0.000,1,1,1,1,0.001,0.004,0.038,0.222,0.002,0.002,0.000,0.000,0.222,0.002,0.000,0
20260703_203049,case01_baseline_boxes,6,294.5,1.000,16.048,550.209,-1.437,747.934,-10.747,0.000,0.914,38.831,-0.026,0.000,-0.029,0.023,-0.031,0.000,0.195,0.025,-85.044,0.003,0.000,-0.158,0.000,-0.003,0.000,0.000,0.000,0.000,-0.349,-0.012,0.250,0.000,1,1,1,1,0.001,0.004,0.038,0.221,0.002,0.002,0.000,0.000,0.221,0.002,0.000,0
20260703_203049,case01_baseline_boxes,6,294.5,1.000,16.152,549.092,-1.437,748.029,-10.723,0.000,0.909,38.742,0.242,0.000,-0.056,-0.246,-0.035,0.000,0.196,0.025,-85.060,0.003,0.000,-0.166,0.000,-0.002,0.000,0.000,0.007,-0.002,-0.352,-0.012,0.245,0.000,1,1,1,1,-0.002,-0.004,0.030,-0.181,0.002,0.002,0.000,0.000,0.181,0.002,0.000,0
20260703_203049,case01_baseline_boxes,6,294.5,1.000,16.264,547.890,-1.419,748.129,-11.046,0.039,0.717,39.850,-3.229,0.386,-1.917,3.053,-2.186,0.388,0.144,-0.070,-85.079,-0.518,-0.952,-0.181,-0.022,-0.009,-0.001,-0.221,-0.068,-0.004,-0.354,-0.012,0.255,0.000,1,1,1,1,0.082,0.007,0.043,0.223,0.071,-0.003,0.001,0.001,0.223,0.071,0.000,0
20260703_203049,case01_baseline_boxes,6,294.5,1.000,16.372,546.742,-1.163,748.215,-10.421,0.281,0.836,37.650,6.252,2.426,1.187,-6.052,1.690,2.628,-0.680,-1.705,-85.061,-8.232,-16.343,0.179,0.017,-0.005,-0.104,0.388,0.045,-1.031,-0.586,-0.019,0.287,0.000,1,1,1,1,0.092,-0.271,0.068,0.031,0.019,0.003,0.000,0.000,0.271,0.019,0.026,0
20260703_203049,case01_baseline_boxes,6,294.5,1.000,16.484,545.583,-1.170,748.309,-10.284,-0.393,0.828,37.167,1.374,-6.743,-0.081,-1.635,0.131,-6.684,-0.808,-2.213,-85.094,-1.288,-5.084,-0.338,0.016,-0.004,-0.055,-0.006,0.009,0.487,-0.503,-0.017,0.312,0.000,0,0,1,1,0.000,0.000,0.048,0.034,0.000,0.000,0.000,0.000,0.048,0.000,0.000,0
20260703_203049,case01_baseline_boxes,6,294.5,1.000,16.592,544.474,-1.230,748.399,-10.235,-0.687,0.824,37.047,0.489,-2.938,-0.035,-0.613,0.054,-2.914,-0.934,-2.420,-85.109,-1.258,-2.065,-0.145,0.019,-0.002,-0.012,0.033,0.023,0.427,-0.574,-0.017,0.310,0.000,0,0,1,1,0.000,0.000,0.033,-0.300,0.000,0.000,0.000,0.000,0.300,0.000,0.000,0
20260703_203049,case01_baseline_boxes,6,294.5,1.000,16.700,543.367,-1.312,748.489,-10.211,-0.817,0.823,36.997,0.234,-1.303,-0.010,-0.287,0.034,-1.292,-1.061,-2.348,-85.113,-1.271,0.721,-0.041,0.024,0.000,0.032,0.044,0.013,0.439,-0.600,-0.020,0.311,0.000,0,0,1,1,0.000,0.000,0.012,-0.298,0.000,0.000,0.000,0.000,0.298,0.000,0.000,0
20260703_203049,case01_baseline_boxes,6,294.5,1.000,16.808,542.266,-1.357,748.580,-10.189,-0.265,0.850,36.819,0.226,5.517,0.265,-0.026,0.175,5.526,-1.126,-1.835,-85.123,-0.649,5.127,-0.102,0.014,-0.003,0.114,-0.098,-0.026,0.827,-0.672,-0.023,0.332,0.000,0,0,1,1,0.000,0.000,0.053,0.347,0.000,0.000,0.000,0.000,0.347,0.000,0.000,0
20260703_203049,case01_baseline_boxes,6,294.5,1.000,16.916,541.164,-1.405,748.672,-10.144,-0.613,0.846,36.711,0.448,-3.473,-0.039,-0.512,0.069,-3.464,-1.150,-1.020,-85.131,-0.244,8.146,-0.080,0.016,0.000,0.146,0.022,0.028,0.316,-0.760,-0.026,0.325,0.000,0,0,1,1,0.000,0.000,0.041,-0.266,0.000,0.000,0.000,0.000,0.266,0.000,0.000,0
20260703_203049,case01_baseline_boxes,6,294.5,1.000,17.016,540.144,-1.460,748.756,-10.190,-0.431,0.834,36.838,-0.457,1.816,-0.122,0.452,-0.196,1.811,-1.145,-0.210,-85.145,0.056,8.103,-0.135,0.007,-0.005,0.129,-0.090,-0.051,-0.172,-0.806,-0.027,0.327,0.000,1,1,1,1,0.000,0.333,0.050,-0.246,0.007,0.007,-0.001,-0.001,0.333,0.007,0.000,0
20260703_203049,case01_baseline_boxes,6,294.5,1.000,17.132,538.954,-1.473,748.853,-10.296,0.369,0.853,37.216,-1.063,8.005,0.191,1.018,-0.050,8.013,-1.077,0.414,-85.176,0.675,6.245,-0.313,-0.021,-0.002,0.042,-0.281,0.033,-0.865,-0.768,-0.026,0.312,0.000,1,1,1,1,0.001,0.178,0.074,-0.094,0.006,0.006,-0.005,-0.005,0.178,0.006,0.000,0
20260703_203049,case01_baseline_boxes,6,294.5,1.000,17.236,537.883,-1.437,748.941,-10.337,0.309,0.858,37.356,-0.407,-0.609,0.053,0.416,0.028,-0.604,-0.919,0.585,-85.193,1.585,1.705,-0.173,-0.027,-0.005,0.020,-0.063,-0.029,-0.225,-0.770,-0.025,0.308,0.000,1,1,1,1,0.001,0.181,0.072,0.032,0.004,0.004,-0.004,-0.004,0.181,0.004,0.000,0
20260703_203049,case01_baseline_boxes,6,294.5,1.000,17.340,536.807,-1.411,749.030,-10.361,0.183,0.866,37.435,-0.243,-1.261,0.084,0.263,0.079,-1.257,-0.734,0.626,-85.220,1.845,0.407,-0.268,-0.033,-0.005,0.001,-0.054,-0.004,-0.186,-0.634,-0.021,0.303,0.000,1,1,1,1,0.000,0.057,0.068,0.038,0.001,0.001,-0.003,-0.003,0.068,0.003,0.000,0
20260703_203049,case01_baseline_boxes,6,294.5,1.000,17.444,535.732,-1.401,749.120,-10.387,0.034,0.876,37.526,-0.260,-1.483,0.093,0.282,0.085,-1.479,-0.530,0.566,-85.248,2.042,-0.592,-0.277,-0.037,-0.005,-0.014,-0.042,0.003,-0.146,-0.526,-0.017,0.298,0.000,1,1,1,1,0.000,0.000,0.058,0.032,0.000,0.000,-0.002,-0.002,0.058,0.002,0.000,0
20260703_203049,case01_baseline_boxes,6,294.5,1.000,17.552,534.605,-1.403,749.214,-10.409,-0.075,0.883,37.609,-0.223,-1.094,0.070,0.237,0.057,-1.092,-0.304,0.435,-85.275,2.260,-1.312,-0.271,-0.039,-0.004,-0.022,-0.019,0.005,-0.082,-0.446,-0.015,0.295,0.000,1,1,1,1,0.000,0.000,0.049,0.030,0.000,0.000,-0.001,-0.001,0.049,0.001,0.000,0
20260703_203049,case01_baseline_boxes,6,294.5,1.000,17.656,533.529,-1.296,749.301,-9.925,0.052,0.509,35.778,4.842,1.274,-3.733,-5.141,-3.339,1.194,-0.390,0.636,-85.371,-0.856,2.011,-0.966,-0.060,-0.029,0.009,-0.211,-0.245,0.310,-0.428,-0.012,0.350,0.000,1,1,1,1,0.035,0.022,-0.463,0.047,-0.041,-0.041,0.009,-0.020,0.463,0.041,0.024,0
20260703_203049,case01_baseline_boxes,6,294.5,1.000,17.763,532.468,-1.025,749.383,-9.860,0.192,0.779,35.615,0.647,1.398,2.694,-0.478,2.715,1.425,-0.861,1.676,-85.561,-4.715,10.399,-1.899,-0.002,-0.008,0.067,0.582,0.206,0.582,-0.132,-0.004,0.377,0.000,0,1,1,1,0.000,0.004,0.207,0.366,0.000,-0.004,0.029,0.008,0.366,0.029,0.000,0
20260703_203049,case01_baseline_boxes,6,294.5,1.000,17.864,531.475,-1.050,749.461,-9.781,-0.613,0.781,35.392,0.797,-8.048,0.028,-0.517,0.202,-8.069,-0.804,1.963,-85.604,0.577,2.870,-0.432,-0.009,-0.006,0.031,-0.073,0.023,-0.365,-0.039,-0.001,0.383,0.000,1,1,0,0,0.002,0.001,0.000,0.000,-0.004,-0.004,0.000,0.000,0.002,0.004,0.000,0
20260703_203049,case01_baseline_boxes,6,294.5,1.000,17.964,530.495,-1.136,749.540,-9.772,-1.082,0.790,35.509,0.084,-4.692,0.085,0.088,0.150,-4.691,-0.730,2.015,-85.632,0.739,0.518,-0.275,-0.015,-0.004,-0.015,-0.064,0.016,-0.455,-0.032,-0.001,0.379,0.000,1,1,0,0,0.001,0.000,0.000,0.000,-0.002,-0.002,0.000,0.000,0.001,0.002,0.000,0
20260703_203049,case01_baseline_boxes,6,294.5,1.000,18.068,529.480,-1.266,749.622,-9.774,-1.399,0.794,35.658,-0.013,-3.168,0.037,0.113,0.072,-3.166,-0.641,1.753,-85.653,0.886,-2.624,-0.212,-0.021,-0.004,-0.071,-0.055,0.007,-0.567,-0.042,-0.002,0.373,0.000,1,1,0,0,0.001,0.001,0.000,0.000,0.000,0.000,0.000,0.000,0.001,0.000,0.000,0
20260703_203049,case01_baseline_boxes,6,294.5,1.000,18.172,528.462,-1.399,749.705,-9.894,-1.425,0.808,36.102,-1.200,-0.258,0.142,1.211,0.053,-0.237,-0.486,0.996,-85.651,1.555,-7.567,0.018,-0.036,-0.003,-0.135,-0.153,0.011,-0.638,-0.073,-0.002,0.361,0.000,1,1,1,1,-0.002,-0.001,0.758,0.629,0.000,0.000,0.003,0.003,0.758,0.003,0.000,0
20260703_203049,case01_baseline_boxes,6,294.5,1.000,18.280,527.381,-1.520,749.792,-10.133,-0.840,0.812,36.719,-2.389,5.842,0.042,2.369,-0.174,5.848,-0.335,0.165,-85.641,1.510,-8.306,0.107,-0.031,0.003,-0.124,0.046,0.059,0.109,-0.111,-0.004,0.345,0.000,1,1,1,1,0.010,0.040,0.367,0.460,0.004,0.004,-0.001,-0.001,0.460,0.004,0.000,0
20260703_203049,case01_baseline_boxes,6,294.5,1.000,18.400,526.177,-1.523,749.888,-10.089,0.400,0.825,36.469,0.438,12.408,0.130,-0.339,0.137,12.411,-0.119,-0.406,-85.641,2.153,-5.711,-0.004,-0.041,-0.001,-0.048,-0.097,-0.044,0.759,-0.098,-0.003,0.350,0.000,1,1,1,1,0.000,0.007,0.199,0.368,0.000,0.000,0.000,0.000,0.368,0.000,0.000,0
20260703_203049,case01_baseline_boxes,6,294.5,1.000,18.508,525.093,-1.481,749.976,-10.035,0.352,0.821,36.268,0.541,-0.479,-0.045,-0.548,-0.005,-0.473,0.105,-0.619,-85.647,2.249,-2.136,-0.060,-0.037,0.000,-0.017,0.041,0.013,0.312,-0.065,-0.002,0.341,0.000,1,1,1,1,-0.007,-0.005,-0.020,-0.254,0.000,0.000,0.000,0.000,0.254,0.000,0.000,0
20260703_203049,case01_baseline_boxes,6,294.5,1.000,18.616,524.003,-1.450,750.064,-10.083,0.224,0.822,36.427,-0.479,-1.287,0.019,0.464,-0.025,-1.293,0.320,-0.647,-85.651,2.148,-0.278,-0.038,-0.033,-0.001,0.011,0.042,-0.006,0.283,-0.072,-0.002,0.347,0.000,1,1,1,1,-0.002,0.003,0.053,0.319,0.001,0.001,0.000,0.000,0.319,0.001,0.000,0
20260703_203049,case01_baseline_boxes,6,294.5,1.000,18.724,522.917,-1.433,750.152,-10.060,0.104,0.816,36.337,0.226,-1.201,-0.061,-0.241,-0.054,-1.199,0.519,-0.531,-85.652,1.988,1.165,-0.015,-0.028,0.001,0.029,0.044,0.012,0.182,-0.097,-0.003,0.341,0.000,1,1,1,1,-0.003,-0.004,0.033,-0.217,0.001,0.001,0.000,0.000,0.217,0.001,0.000,0
20260703_203049,case01_baseline_boxes,6,294.5,1.000,18.824,521.906,-1.426,750.233,-10.083,0.037,0.812,36.415,-0.227,-0.670,-0.047,0.219,-0.072,-0.670,0.685,-0.348,-85.652,1.658,1.824,0.000,-0.024,0.001,0.037,0.043,-0.001,0.072,-0.140,-0.005,0.338,0.000,1,1,1,1,-0.002,-0.004,0.036,-0.183,0.002,0.002,0.000,0.000,0.183,0.002,0.000,0
20260703_203049,case01_baseline_boxes,6,294.5,1.000,18.932,520.815,-1.424,750.320,-10.134,0.010,0.806,36.599,-0.518,-0.266,-0.058,0.511,-0.101,-0.265,0.837,-0.132,-85.652,1.516,2.165,0.003,-0.019,0.000,0.035,0.049,-0.008,-0.012,-0.182,-0.006,0.338,0.000,1,1,1,1,0.001,0.003,0.048,0.187,0.003,0.003,0.000,0.000,0.187,0.003,0.000,0
20260703_203049,case01_baseline_boxes,6,294.5,1.000,19.032,519.796,-1.423,750.400,-10.159,0.012,0.797,36.685,-0.246,0.021,-0.088,0.238,-0.106,0.023,0.949,0.047,-85.653,1.126,1.783,-0.005,-0.015,0.000,0.028,0.045,-0.001,-0.072,-0.221,-0.007,0.333,0.000,1,1,1,1,0.001,0.002,0.046,0.109,0.003,0.003,0.000,0.000,0.109,0.003,0.000,0
20260703_203049,case01_baseline_boxes,6,294.5,1.000,19.140,518.703,-1.421,750.485,-10.186,0.021,0.787,36.779,-0.270,0.087,-0.097,0.262,-0.116,0.090,1.037,0.184,-85.655,0.877,1.372,-0.024,-0.010,-0.001,0.018,0.044,-0.003,-0.099,-0.278,-0.009,0.328,0.000,1,1,1,1,0.000,0.000,0.045,0.047,0.004,0.004,0.000,0.000,0.047,0.004,0.000,0
20260703_203049,case01_baseline_boxes,6,294.5,1.000,19.240,517.681,-1.419,750.563,-10.215,0.024,0.778,36.882,-0.294,0.028,-0.095,0.285,-0.116,0.032,1.088,0.253,-85.659,0.513,0.691,-0.045,-0.006,-0.001,0.008,0.043,-0.004,-0.102,-0.313,-0.011,0.324,0.000,1,1,1,1,0.000,0.000,0.044,0.036,0.004,0.004,0.000,0.000,0.044,0.004,0.000,0
20260703_203049,case01_baseline_boxes,6,294.5,1.000,19.348,516.575,-1.417,750.647,-10.246,0.015,0.767,36.988,-0.304,-0.089,-0.104,0.295,-0.128,-0.085,1.112,0.268,-85.667,0.240,0.154,-0.078,-0.002,-0.002,-0.001,0.045,-0.005,-0.096,-0.355,-0.012,0.319,0.000,1,1,1,1,0.000,0.000,0.044,0.034,0.004,0.004,0.000,0.000,0.044,0.004,0.000,0
20260703_203049,case01_baseline_boxes,6,294.5,1.000,19.456,515.466,-1.416,750.729,-10.273,-0.003,0.757,37.082,-0.270,-0.184,-0.101,0.262,-0.124,-0.180,1.106,0.237,-85.678,-0.062,-0.315,-0.111,0.003,-0.002,-0.008,0.043,-0.005,-0.066,-0.388,-0.013,0.316,0.000,1,1,1,1,0.000,0.000,0.042,0.033,0.003,0.003,0.000,0.000,0.042,0.003,0.000,0
20260703_203049,case01_baseline_boxes,6,294.5,1.000,19.564,514.359,-1.417,750.810,-10.296,-0.024,0.748,37.164,-0.233,-0.203,-0.096,0.226,-0.117,-0.200,1.072,0.177,-85.693,-0.333,-0.593,-0.143,0.007,-0.003,-0.011,0.040,-0.005,-0.034,-0.416,-0.014,0.312,0.000,1,1,1,1,0.000,0.000,0.041,0.032,0.003,0.003,0.000,0.000,0.041,0.003,0.000,0
20260703_203049,case01_baseline_boxes,6,294.5,1.000,19.675,513.213,-1.421,750.893,-10.316,-0.039,0.738,37.234,-0.201,-0.150,-0.093,0.194,-0.110,-0.147,1.013,0.106,-85.711,-0.596,-0.714,-0.179,0.010,-0.003,-0.012,0.037,-0.005,-0.005,-0.480,-0.015,0.309,0.000,1,1,1,1,0.000,0.000,0.040,0.031,0.004,0.004,0.000,0.000,0.040,0.004,0.000,0
