run_id,case_name,cargo_count,total_mass_kg,secured_frac,Time,PosX,PosY,PosZ,VelX,VelY,VelZ,SpeedKmh,AccX,AccY,AccZ,LongAcc,LatAcc,VertAcc,Roll,Pitch,Yaw,RollRate,PitchRate,YawRate,AngVelX,AngVelY,AngVelZ,AngAccX,AngAccY,AngAccZ,SteerAngle,TargetSteer,Throttle,Brake,FL_Grounded,FR_Grounded,RL_Grounded,RR_Grounded,FL_ForwardSlip,FR_ForwardSlip,RL_ForwardSlip,RR_ForwardSlip,FL_SideSlip,FR_SideSlip,RL_SideSlip,RR_SideSlip,MaxForwardSlip,MaxSideSlip,RolloverRisk,IsRollover
20260703_204435,case01_baseline_boxes,6,294.5,1.000,0.639,679.395,-1.501,736.112,-0.146,0.448,0.014,1.696,-1.619,0.957,0.080,1.618,0.080,0.958,-0.006,0.057,-89.997,0.157,0.387,0.045,-0.003,0.002,0.006,0.003,0.022,-0.036,12.800,0.380,1.000,0.000,1,1,1,1,-0.004,-0.002,0.737,-1.083,-0.009,-0.008,-0.001,-0.001,1.083,0.009,0.000,0
20260703_204435,case01_baseline_boxes,6,294.5,1.000,0.747,679.366,-1.455,736.115,-0.372,0.386,0.036,1.935,-2.263,-0.615,0.225,2.264,0.224,-0.611,0.016,0.090,-89.968,0.218,0.329,0.288,-0.004,0.007,0.005,-0.011,0.045,-0.014,14.442,0.384,1.000,0.000,1,1,1,1,-0.006,-0.003,0.451,-1.351,-0.011,-0.006,-0.002,-0.002,1.351,0.011,0.000,0
20260703_204435,case01_baseline_boxes,6,294.5,1.000,0.847,679.318,-1.423,736.120,-0.569,0.243,0.057,2.236,-1.967,-1.428,0.203,1.970,0.200,-1.424,0.045,0.116,-89.920,0.284,0.265,0.477,-0.006,0.010,0.004,-0.016,0.033,-0.004,14.447,0.384,1.000,0.000,1,1,1,1,-0.006,-0.003,-0.068,-0.119,-0.012,-0.005,-0.003,-0.003,0.119,0.012,0.000,0
20260703_204435,case01_baseline_boxes,6,294.5,1.000,0.955,679.244,-1.406,736.127,-0.796,0.077,0.079,2.894,-2.276,-1.660,0.223,2.281,0.214,-1.655,0.085,0.141,-89.846,0.404,0.249,0.737,-0.007,0.014,0.003,-0.015,0.036,-0.009,14.245,0.380,1.000,0.000,1,1,1,1,-0.005,-0.003,0.021,0.228,-0.012,-0.003,-0.003,-0.003,0.228,0.012,0.000,0
20260703_204435,case01_baseline_boxes,6,294.5,1.000,1.063,679.147,-1.405,736.136,-1.014,-0.043,0.099,3.672,-2.181,-1.199,0.205,2.185,0.192,-1.194,0.132,0.157,-89.751,0.473,0.155,0.952,-0.008,0.017,0.001,-0.007,0.035,-0.021,13.818,0.362,1.000,0.000,1,1,1,1,-0.004,-0.002,0.207,-0.026,-0.012,-0.003,-0.002,-0.002,0.207,0.012,0.000,0
20260703_204435,case01_baseline_boxes,6,294.5,1.000,1.167,679.031,-1.413,736.147,-1.216,-0.096,0.115,4.410,-2.015,-0.532,0.154,2.017,0.139,-0.527,0.180,0.158,-89.642,0.475,0.010,1.090,-0.008,0.019,-0.001,0.001,0.024,-0.025,13.156,0.353,1.000,0.000,1,1,1,1,-0.002,0.000,0.151,0.508,-0.009,0.000,-0.002,-0.003,0.508,0.009,0.000,0
20260703_204435,case01_baseline_boxes,6,294.5,1.000,1.271,678.893,-1.423,736.160,-1.438,-0.102,0.131,5.210,-2.218,-0.059,0.167,2.220,0.148,-0.054,0.224,0.143,-89.518,0.447,-0.145,1.244,-0.007,0.022,-0.004,0.008,0.026,-0.026,12.615,0.340,1.000,0.000,1,1,1,1,-0.002,0.000,0.142,0.431,-0.009,0.000,-0.002,-0.002,0.431,0.009,0.000,0
20260703_204435,case01_baseline_boxes,6,294.5,1.000,1.383,678.721,-1.433,736.175,-1.652,-0.075,0.146,5.978,-2.148,0.271,0.143,2.149,0.121,0.275,0.266,0.114,-89.369,0.413,-0.295,1.488,-0.006,0.024,-0.005,0.012,0.022,-0.017,11.825,0.320,1.000,0.000,1,1,1,1,-0.004,-0.003,0.119,-0.112,-0.008,0.001,-0.002,-0.002,0.119,0.008,0.000,0
20260703_204435,case01_baseline_boxes,6,294.5,1.000,1.495,678.523,-1.440,736.192,-1.874,-0.037,0.159,6.773,-2.220,0.371,0.135,2.221,0.106,0.374,0.298,0.077,-89.208,0.324,-0.365,1.605,-0.004,0.026,-0.006,0.014,0.016,-0.003,11.268,0.306,1.000,0.000,1,1,1,1,-0.003,-0.001,0.125,0.260,-0.007,0.001,-0.002,-0.002,0.260,0.007,0.000,0
20260703_204435,case01_baseline_boxes,6,294.5,1.000,1.603,678.311,-1.442,736.210,-2.087,-0.006,0.172,7.537,-2.122,0.313,0.127,2.124,0.094,0.314,0.320,0.044,-89.045,0.221,-0.332,1.638,-0.003,0.027,-0.005,0.014,0.014,0.009,10.543,0.279,1.000,0.000,1,1,1,1,-0.004,-0.002,0.119,0.009,-0.007,0.001,-0.002,-0.002,0.119,0.007,0.000,0
20260703_204435,case01_baseline_boxes,6,294.5,1.000,1.711,678.074,-1.442,736.229,-2.301,0.013,0.184,8.312,-2.149,0.188,0.116,2.150,0.075,0.188,0.334,0.019,-88.875,0.140,-0.251,1.699,-0.002,0.028,-0.003,0.013,0.008,0.018,9.851,0.270,1.000,0.000,1,1,1,1,-0.004,-0.002,0.121,0.091,-0.006,0.000,-0.002,-0.002,0.121,0.006,0.000,0
20260703_204435,case01_baseline_boxes,6,294.5,1.000,1.815,677.824,-1.440,736.249,-2.494,0.019,0.196,9.008,-1.930,0.063,0.127,1.932,0.084,0.063,0.341,0.006,-88.705,0.064,-0.129,1.697,-0.001,0.029,-0.001,0.011,0.008,0.019,9.200,0.253,1.000,0.000,1,1,1,1,-0.004,-0.002,0.121,0.089,-0.004,0.002,-0.002,-0.002,0.121,0.004,0.000,0
20260703_204435,case01_baseline_boxes,6,294.5,1.000,1.919,677.555,-1.438,736.270,-2.687,0.018,0.210,9.702,-1.923,-0.008,0.135,1.926,0.086,-0.009,0.341,0.004,-88.532,0.006,-0.016,1.730,0.000,0.030,0.001,0.009,0.007,0.017,8.847,0.244,1.000,0.000,1,1,1,1,-0.004,-0.002,0.122,0.088,-0.005,0.000,-0.002,-0.002,0.122,0.005,0.000,0
20260703_204435,case01_baseline_boxes,6,294.5,1.000,2.023,677.264,-1.436,736.293,-2.898,0.013,0.224,10.464,-2.113,-0.050,0.143,2.116,0.082,-0.050,0.337,0.012,-88.354,-0.046,0.076,1.777,0.001,0.030,0.002,0.009,0.004,0.013,8.228,0.228,1.000,0.000,1,1,1,1,-0.004,-0.002,0.123,0.088,-0.004,0.001,-0.003,-0.003,0.123,0.004,0.000,0
20260703_204435,case01_baseline_boxes,6,294.5,1.000,2.147,676.891,-1.435,736.321,-3.128,0.007,0.241,11.294,-2.300,-0.063,0.166,2.304,0.091,-0.062,0.325,0.028,-88.141,-0.113,0.163,2.133,0.002,0.030,0.003,0.008,0.002,0.007,7.597,0.212,1.000,0.000,1,1,1,1,-0.004,-0.002,0.124,0.088,-0.003,0.002,-0.003,-0.003,0.124,0.003,0.000,0
20260703_204435,case01_baseline_boxes,6,294.5,1.000,2.255,676.541,-1.435,736.348,-3.338,0.002,0.256,12.054,-2.104,-0.045,0.157,2.109,0.081,-0.043,0.311,0.044,-87.954,-0.142,0.161,1.873,0.003,0.030,0.002,0.006,0.000,-0.001,7.038,0.197,1.000,0.000,1,1,1,1,-0.003,-0.002,0.125,0.088,-0.002,0.002,-0.003,-0.003,0.125,0.003,0.000,0
20260703_204435,case01_baseline_boxes,6,294.5,1.000,2.359,676.184,-1.434,736.376,-3.529,0.000,0.271,12.742,-1.907,-0.026,0.148,1.912,0.074,-0.024,0.294,0.058,-87.775,-0.168,0.137,1.784,0.003,0.030,0.002,0.004,-0.002,-0.005,6.545,0.184,1.000,0.000,1,1,1,1,-0.003,-0.002,0.125,0.087,-0.001,0.003,-0.003,-0.003,0.125,0.003,0.000,0
20260703_204435,case01_baseline_boxes,6,294.5,1.000,2.463,675.807,-1.435,736.405,-3.738,-0.002,0.288,13.497,-2.091,-0.016,0.169,2.096,0.081,-0.014,0.275,0.068,-87.598,-0.191,0.102,1.770,0.003,0.030,0.001,0.003,-0.003,-0.008,6.187,0.171,1.000,0.000,1,1,1,1,-0.003,-0.002,0.126,0.087,-0.002,0.002,-0.003,-0.003,0.126,0.003,0.000,0
20260703_204435,case01_baseline_boxes,6,294.5,1.000,2.567,675.406,-1.435,736.436,-3.928,-0.003,0.303,14.181,-1.894,-0.009,0.151,1.899,0.065,-0.007,0.254,0.074,-87.423,-0.209,0.058,1.755,0.004,0.029,0.000,0.002,-0.006,-0.007,5.613,0.159,1.000,0.000,1,1,1,1,-0.003,-0.002,0.126,0.087,0.001,0.003,-0.003,-0.003,0.126,0.003,0.000,0
20260703_204435,case01_baseline_boxes,6,294.5,1.000,2.675,674.972,-1.435,736.469,-4.135,-0.003,0.319,14.930,-2.075,-0.007,0.154,2.080,0.055,-0.005,0.232,0.076,-87.248,-0.225,0.015,1.749,0.004,0.028,0.000,0.001,-0.011,-0.007,5.198,0.142,1.000,0.000,1,1,1,1,-0.003,-0.002,0.126,0.087,0.000,0.002,-0.003,-0.003,0.126,0.003,0.000,0
20260703_204435,case01_baseline_boxes,6,294.5,1.000,2.779,674.532,-1.436,736.503,-4.322,-0.004,0.335,15.607,-1.873,-0.006,0.163,1.879,0.068,-0.003,0.210,0.074,-87.084,-0.220,-0.020,1.639,0.004,0.027,-0.001,0.000,-0.007,-0.004,4.846,0.133,1.000,0.000,1,1,1,1,-0.003,-0.002,0.126,0.087,-0.001,0.001,-0.003,-0.003,0.126,0.003,0.000,0
20260703_204435,case01_baseline_boxes,6,294.5,1.000,2.879,674.089,-1.436,736.538,-4.508,-0.004,0.353,16.280,-1.861,-0.004,0.176,1.868,0.076,-0.002,0.189,0.070,-86.930,-0.208,-0.039,1.539,0.004,0.027,-0.001,-0.001,-0.006,-0.003,4.522,0.125,1.000,0.000,1,1,1,1,-0.003,-0.002,0.126,0.086,0.000,0.001,-0.003,-0.004,0.126,0.004,0.000,0
20260703_204435,case01_baseline_boxes,6,294.5,1.000,2.987,673.590,-1.436,736.577,-4.712,-0.005,0.372,17.016,-2.035,-0.002,0.195,2.043,0.080,0.000,0.167,0.064,-86.768,-0.215,-0.051,1.621,0.003,0.026,-0.001,-0.002,-0.009,-0.001,4.028,0.116,1.000,0.000,1,1,1,1,-0.003,-0.002,0.125,0.086,0.002,0.003,-0.004,-0.004,0.125,0.004,0.000,0
20260703_204435,case01_baseline_boxes,6,294.5,1.000,3.091,673.091,-1.437,736.617,-4.914,-0.004,0.392,17.748,-2.023,0.003,0.202,2.032,0.083,0.005,0.148,0.060,-86.617,-0.191,-0.046,1.507,0.003,0.025,-0.001,-0.003,-0.009,0.001,3.735,0.108,1.000,0.000,1,1,1,1,-0.003,-0.002,0.125,0.086,0.001,0.003,-0.004,-0.004,0.125,0.004,0.000,0
20260703_204435,case01_baseline_boxes,6,294.5,1.000,3.191,672.589,-1.437,736.657,-5.067,-0.002,0.409,18.300,-1.525,0.024,0.168,1.533,0.074,0.025,0.132,0.056,-86.476,-0.167,-0.037,1.413,0.003,0.025,-0.001,-0.003,-0.003,-0.001,3.460,0.101,1.000,0.000,1,1,1,1,-0.010,-0.036,0.039,-0.594,0.001,0.002,-0.003,-0.003,0.594,0.003,0.000,0
20260703_204435,case01_baseline_boxes,6,294.5,1.000,3.291,672.072,-1.437,736.699,-5.237,-0.002,0.427,18.915,-1.701,0.000,0.176,1.709,0.067,0.002,0.117,0.053,-86.340,-0.146,-0.028,1.362,0.002,0.024,-0.001,-0.004,-0.010,0.002,3.210,0.094,1.000,0.000,1,1,1,1,-0.013,-0.535,-0.070,-0.134,0.001,0.002,-0.003,-0.003,0.535,0.003,0.000,0
20260703_204435,case01_baseline_boxes,6,294.5,1.000,3.399,671.493,-1.438,736.747,-5.456,-0.002,0.449,19.709,-2.194,0.002,0.220,2.204,0.074,0.004,0.104,0.052,-86.198,-0.131,-0.016,1.415,0.002,0.022,0.000,-0.004,-0.020,0.006,2.959,0.083,1.000,0.000,1,1,1,1,-0.016,-0.524,-0.056,0.383,0.002,0.003,-0.004,-0.004,0.524,0.004,0.000,0
20260703_204435,case01_baseline_boxes,6,294.5,1.000,3.503,670.919,-1.438,736.794,-5.690,-0.001,0.473,20.553,-2.332,0.006,0.245,2.344,0.084,0.008,0.094,0.052,-86.069,-0.098,0.002,1.291,0.001,0.021,0.000,-0.004,-0.009,0.006,2.598,0.076,0.990,0.000,1,1,1,1,0.009,0.324,0.301,0.436,0.003,0.004,-0.004,-0.004,0.436,0.004,0.000,0
20260703_204435,case01_baseline_boxes,6,294.5,1.000,3.611,670.298,-1.438,736.846,-5.819,0.000,0.488,21.021,-1.290,0.007,0.152,1.298,0.060,0.008,0.087,0.053,-85.941,-0.072,0.012,1.285,0.001,0.020,0.000,-0.006,-0.005,-0.004,2.383,0.070,0.958,0.000,1,1,1,1,-0.002,-0.427,-0.035,0.541,0.003,0.004,-0.004,-0.004,0.541,0.004,0.000,0
20260703_204435,case01_baseline_boxes,6,294.5,1.000,3.711,669.705,-1.438,736.896,-6.009,0.000,0.509,21.710,-1.905,0.006,0.202,1.915,0.063,0.008,0.083,0.055,-85.828,-0.040,0.014,1.128,0.000,0.018,0.000,-0.004,-0.019,0.002,2.082,0.062,0.931,0.000,1,1,1,1,-0.014,-0.376,-0.046,0.308,0.003,0.004,-0.004,-0.004,0.376,0.004,0.000,0
20260703_204435,case01_baseline_boxes,6,294.5,1.000,3.811,669.096,-1.438,736.948,-6.120,0.001,0.523,22.112,-1.108,0.004,0.141,1.115,0.058,0.005,0.081,0.056,-85.722,-0.015,0.013,1.053,0.000,0.019,0.000,-0.005,0.004,-0.005,1.910,0.054,0.903,0.000,1,1,1,1,-0.012,-0.367,-0.026,-0.387,0.002,0.002,-0.003,-0.003,0.387,0.003,0.000,0
20260703_204435,case01_baseline_boxes,6,294.5,1.000,3.915,668.450,-1.438,737.003,-6.306,0.001,0.541,22.787,-1.865,0.002,0.185,1.874,0.042,0.004,0.082,0.056,-85.621,0.012,0.006,1.019,0.000,0.017,0.000,-0.004,-0.022,0.002,1.665,0.047,0.888,0.000,1,1,1,1,-0.001,-0.347,-0.012,0.533,0.004,0.004,-0.004,-0.004,0.533,0.004,0.000,0
20260703_204435,case01_baseline_boxes,6,294.5,1.000,4.015,667.809,-1.438,737.058,-6.476,0.001,0.559,23.399,-1.692,0.001,0.178,1.701,0.046,0.002,0.086,0.057,-85.531,0.035,0.003,0.900,-0.001,0.015,0.000,-0.004,-0.017,0.001,1.451,0.043,0.862,0.000,1,1,1,1,-0.011,-0.343,-0.015,0.178,0.003,0.003,-0.003,-0.003,0.343,0.003,0.000,0
20260703_204435,case01_baseline_boxes,6,294.5,1.000,4.115,667.153,-1.438,737.115,-6.592,0.001,0.573,23.819,-1.159,-0.001,0.143,1.167,0.051,0.000,0.091,0.056,-85.447,0.056,-0.004,0.836,-0.001,0.015,0.000,-0.004,0.000,-0.004,1.342,0.038,0.839,0.000,1,1,1,1,-0.011,-0.333,0.002,-0.165,0.002,0.002,-0.003,-0.003,0.333,0.003,0.000,0
20260703_204435,case01_baseline_boxes,6,294.5,1.000,4.215,666.483,-1.437,737.174,-6.721,0.001,0.589,24.289,-1.296,-0.001,0.153,1.304,0.048,0.000,0.099,0.055,-85.369,0.072,-0.009,0.780,-0.001,0.014,0.000,-0.003,-0.006,-0.002,1.167,0.035,0.817,0.000,1,1,1,1,-0.011,-0.323,-0.001,-0.384,0.002,0.002,-0.003,-0.003,0.384,0.003,0.000,0
20260703_204435,case01_baseline_boxes,6,294.5,1.000,4.319,665.772,-1.437,737.236,-6.859,0.001,0.605,24.790,-1.382,-0.001,0.163,1.390,0.049,0.000,0.108,0.054,-85.293,0.090,-0.015,0.760,-0.002,0.013,-0.001,-0.002,-0.008,0.000,1.079,0.031,0.797,0.000,1,1,1,1,-0.010,-0.312,0.025,-0.358,0.001,0.002,-0.003,-0.003,0.358,0.003,0.000,0
20260703_204435,case01_baseline_boxes,6,294.5,1.000,4.431,664.988,-1.437,737.305,-7.055,0.001,0.627,25.499,-1.959,0.000,0.217,1.970,0.053,0.001,0.119,0.052,-85.217,0.112,-0.018,0.756,-0.002,0.011,0.000,-0.001,-0.021,0.003,0.919,0.028,0.777,0.000,1,1,1,1,-0.009,-0.300,0.027,0.112,0.002,0.002,-0.003,-0.003,0.300,0.003,0.000,0
20260703_204435,case01_baseline_boxes,6,294.5,1.000,4.543,664.191,-1.437,737.376,-7.224,0.001,0.646,26.111,-1.689,0.001,0.192,1.699,0.048,0.002,0.131,0.050,-85.148,0.120,-0.020,0.694,-0.002,0.010,0.000,-0.001,-0.015,0.003,0.786,0.024,0.761,0.000,1,1,1,1,0.001,0.282,0.130,0.104,0.003,0.003,-0.003,-0.003,0.282,0.003,0.000,0
20260703_204435,case01_baseline_boxes,6,294.5,1.000,4.655,663.376,-1.437,737.449,-7.324,0.001,0.658,26.473,-0.999,0.001,0.122,1.006,0.036,0.002,0.143,0.048,-85.084,0.124,-0.018,0.638,-0.002,0.010,0.000,-0.001,0.000,-0.003,0.664,0.020,0.737,0.000,1,1,1,1,-0.005,-0.270,0.042,0.046,0.003,0.003,-0.003,-0.003,0.270,0.003,0.000,0
20260703_204435,case01_baseline_boxes,6,294.5,1.000,4.759,662.607,-1.437,737.518,-7.438,0.001,0.671,26.886,-1.141,0.001,0.132,1.148,0.033,0.002,0.155,0.047,-85.030,0.116,-0.015,0.544,-0.002,0.009,0.000,0.000,-0.007,0.000,0.592,0.017,0.720,0.000,1,1,1,1,-0.008,-0.264,0.038,0.000,0.002,0.002,-0.002,-0.002,0.264,0.002,0.000,0
20260703_204435,case01_baseline_boxes,6,294.5,1.000,4.863,661.824,-1.437,737.589,-7.604,0.001,0.689,27.488,-1.663,0.002,0.181,1.672,0.035,0.003,0.166,0.046,-84.980,0.113,-0.013,0.497,-0.002,0.007,0.000,0.001,-0.018,0.004,0.493,0.015,0.710,0.000,1,1,1,1,0.005,0.250,0.134,0.411,0.004,0.004,-0.003,-0.003,0.411,0.004,0.000,0
20260703_204435,case01_baseline_boxes,6,294.5,1.000,4.975,660.972,-1.437,737.666,-7.660,0.001,0.697,27.688,-0.552,0.000,0.073,0.556,0.024,0.001,0.178,0.045,-84.932,0.115,-0.009,0.482,-0.002,0.008,0.000,0.000,0.009,-0.005,0.403,0.012,0.683,0.000,1,1,1,1,-0.007,-0.234,0.048,-0.295,0.002,0.002,-0.002,-0.002,0.295,0.002,0.000,0
20260703_204435,case01_baseline_boxes,6,294.5,1.000,5.079,660.166,-1.437,737.740,-7.786,0.001,0.710,28.145,-1.262,0.000,0.136,1.269,0.023,0.001,0.188,0.044,-84.891,0.098,-0.007,0.410,-0.002,0.007,0.000,0.002,-0.013,0.002,0.322,0.010,0.670,0.000,1,1,1,1,-0.007,-0.223,0.048,-0.057,0.003,0.003,-0.002,-0.002,0.223,0.003,0.000,0
20260703_204435,case01_baseline_boxes,6,294.5,1.000,5.183,659.346,-1.437,737.815,-7.936,0.001,0.726,28.689,-1.502,0.000,0.160,1.510,0.025,0.001,0.196,0.043,-84.854,0.088,-0.005,0.370,-0.001,0.005,0.000,0.003,-0.017,0.003,0.258,0.008,0.661,0.000,1,1,1,1,0.005,0.204,0.114,0.419,0.004,0.004,-0.003,-0.003,0.419,0.004,0.000,0
20260703_204435,case01_baseline_boxes,6,294.5,1.000,5.287,658.519,-1.437,737.890,-8.040,0.001,0.737,29.066,-1.042,-0.001,0.113,1.048,0.019,0.000,0.204,0.043,-84.821,0.075,-0.003,0.330,-0.001,0.005,0.000,0.002,-0.007,0.000,0.218,0.007,0.645,0.000,1,1,1,1,0.002,0.186,0.109,0.296,0.003,0.003,-0.003,-0.003,0.296,0.003,0.000,0
20260703_204435,case01_baseline_boxes,6,294.5,1.000,5.391,657.682,-1.437,737.967,-8.097,0.001,0.744,29.274,-0.573,-0.002,0.069,0.577,0.016,-0.002,0.210,0.043,-84.791,0.063,-0.003,0.302,-0.001,0.005,0.000,0.002,0.007,-0.004,0.161,0.005,0.624,0.000,1,1,1,1,-0.006,-0.164,0.055,-0.111,0.002,0.002,-0.002,-0.002,0.164,0.002,0.000,0
20260703_204435,case01_baseline_boxes,6,294.5,1.000,5.495,656.834,-1.437,738.045,-8.176,0.000,0.753,29.558,-0.787,-0.002,0.087,0.791,0.015,-0.002,0.215,0.042,-84.763,0.050,-0.004,0.273,-0.001,0.005,0.000,0.002,-0.001,-0.001,0.119,0.004,0.610,0.000,1,1,1,1,-0.006,-0.134,0.058,-0.281,0.002,0.002,-0.002,-0.002,0.281,0.002,0.000,0
20260703_204435,case01_baseline_boxes,6,294.5,1.000,5.599,655.976,-1.436,738.124,-8.277,0.000,0.764,29.926,-1.014,-0.002,0.109,1.020,0.015,-0.001,0.219,0.042,-84.739,0.036,-0.005,0.248,-0.001,0.004,0.000,0.002,-0.008,0.001,0.084,0.003,0.599,0.000,1,1,1,1,-0.005,-0.094,0.058,-0.141,0.002,0.002,-0.002,-0.002,0.141,0.002,0.000,0
20260703_204435,case01_baseline_boxes,6,294.5,1.000,5.703,655.110,-1.436,738.204,-8.403,0.000,0.777,30.378,-1.251,-0.002,0.131,1.258,0.015,-0.001,0.221,0.042,-84.716,0.023,-0.005,0.222,0.000,0.003,0.000,0.003,-0.012,0.002,0.052,0.001,0.591,0.000,1,1,1,1,0.003,0.036,0.092,0.393,0.003,0.003,-0.002,-0.002,0.393,0.003,0.000,0
20260703_204435,case01_baseline_boxes,6,294.5,1.000,5.807,654.232,-1.436,738.286,-8.488,0.000,0.786,30.688,-0.855,-0.002,0.092,0.860,0.012,-0.001,0.222,0.041,-84.696,0.009,-0.005,0.200,0.000,0.003,0.000,0.002,-0.004,0.000,0.021,0.001,0.578,0.000,1,1,1,1,0.001,0.016,0.088,0.311,0.003,0.003,-0.002,-0.002,0.311,0.003,0.000,0
20260703_204435,case01_baseline_boxes,6,294.5,1.000,5.911,653.348,-1.437,738.368,-8.539,0.000,0.792,30.872,-0.509,-0.002,0.059,0.512,0.012,-0.002,0.222,0.040,-84.678,-0.003,-0.007,0.182,0.000,0.003,0.000,0.002,0.006,-0.003,-0.003,0.000,0.561,0.000,1,1,1,1,-0.004,-0.015,0.059,-0.182,0.002,0.002,-0.002,-0.002,0.182,0.002,0.000,0
20260703_204435,case01_baseline_boxes,6,294.5,1.000,6.015,652.455,-1.437,738.450,-8.610,-0.001,0.800,31.129,-0.708,-0.001,0.078,0.712,0.012,-0.001,0.220,0.040,-84.662,-0.014,-0.007,0.166,0.000,0.003,0.000,0.002,-0.001,-0.001,-0.020,-0.001,0.550,0.000,1,1,1,1,-0.004,-0.013,0.059,-0.249,0.002,0.002,-0.002,-0.002,0.249,0.002,0.000,0
20260703_204435,case01_baseline_boxes,6,294.5,1.000,6.119,651.553,-1.437,738.534,-8.686,-0.001,0.808,31.406,-0.766,-0.001,0.084,0.770,0.012,-0.001,0.218,0.039,-84.646,-0.024,-0.007,0.152,0.000,0.003,0.000,0.002,-0.003,0.000,-0.036,-0.001,0.539,0.000,1,1,1,1,-0.004,-0.013,0.058,-0.207,0.002,0.002,-0.002,-0.002,0.207,0.002,0.000,0
20260703_204435,case01_baseline_boxes,6,294.5,1.000,6.247,650.432,-1.437,738.639,-8.814,-0.001,0.822,31.866,-1.272,-0.001,0.136,1.279,0.016,0.000,0.214,0.038,-84.630,-0.041,-0.007,0.167,0.001,0.002,0.000,0.002,-0.012,0.003,-0.053,-0.001,0.531,0.000,1,1,1,1,0.002,0.011,0.080,0.339,0.003,0.003,-0.002,-0.002,0.339,0.003,0.000,0
20260703_204435,case01_baseline_boxes,6,294.5,1.000,6.351,649.514,-1.437,738.724,-8.851,-0.001,0.827,32.003,-0.377,-0.001,0.048,0.380,0.013,0.000,0.210,0.038,-84.617,-0.040,-0.006,0.125,0.001,0.003,0.000,0.000,0.008,-0.003,-0.062,-0.002,0.515,0.000,1,1,1,1,-0.004,-0.012,0.057,-0.223,0.002,0.002,-0.001,-0.001,0.223,0.002,0.000,0
20260703_204435,case01_baseline_boxes,6,294.5,1.000,6.455,648.588,-1.437,738.811,-8.916,-0.001,0.834,32.239,-0.651,0.000,0.074,0.655,0.012,0.000,0.205,0.037,-84.605,-0.045,-0.006,0.118,0.001,0.002,0.000,0.001,-0.001,0.000,-0.067,-0.002,0.506,0.000,1,1,1,1,-0.004,-0.011,0.056,-0.226,0.002,0.002,-0.001,-0.001,0.226,0.002,0.000,0
20260703_204435,case01_baseline_boxes,6,294.5,1.000,6.559,647.654,-1.437,738.898,-8.979,-0.001,0.841,32.468,-0.631,0.000,0.071,0.635,0.011,0.000,0.200,0.036,-84.594,-0.047,-0.005,0.110,0.001,0.002,0.000,0.000,-0.001,0.000,-0.077,-0.002,0.497,0.000,1,1,1,1,-0.004,-0.011,0.055,-0.225,0.002,0.002,-0.001,-0.001,0.225,0.002,0.000,0
20260703_204435,case01_baseline_boxes,6,294.5,1.000,6.663,646.713,-1.437,738.987,-9.082,-0.001,0.852,32.840,-1.029,0.001,0.112,1.035,0.015,0.001,0.196,0.036,-84.584,-0.048,-0.003,0.101,0.001,0.001,0.000,0.001,-0.011,0.003,-0.082,-0.003,0.492,0.000,1,1,1,1,0.002,0.009,0.074,0.332,0.003,0.003,-0.002,-0.002,0.332,0.003,0.000,0
20260703_204435,case01_baseline_boxes,6,294.5,1.000,6.771,645.732,-1.437,739.079,-9.111,-0.001,0.856,32.943,-0.284,0.000,0.039,0.286,0.012,0.000,0.191,0.036,-84.575,-0.049,-0.004,0.096,0.001,0.002,0.000,-0.001,0.009,-0.003,-0.090,-0.003,0.478,0.000,1,1,1,1,-0.004,-0.010,0.054,-0.226,0.002,0.002,-0.001,-0.001,0.226,0.002,0.000,0
20260703_204435,case01_baseline_boxes,6,294.5,1.000,6.871,644.816,-1.437,739.165,-9.167,-0.001,0.863,33.148,-0.565,0.000,0.065,0.569,0.011,0.001,0.186,0.035,-84.566,-0.044,-0.003,0.085,0.001,0.002,0.000,0.000,-0.001,0.000,-0.094,-0.003,0.469,0.000,1,1,1,1,-0.004,-0.010,0.053,-0.226,0.002,0.002,-0.001,-0.001,0.226,0.002,0.000,0
20260703_204435,case01_baseline_boxes,6,294.5,1.000,6.971,643.893,-1.437,739.252,-9.222,-0.001,0.869,33.346,-0.545,0.000,0.064,0.549,0.012,0.001,0.182,0.035,-84.558,-0.041,-0.003,0.080,0.001,0.002,0.000,-0.001,-0.001,0.000,-0.095,-0.003,0.461,0.000,1,1,1,1,-0.004,-0.009,0.053,-0.226,0.001,0.001,-0.001,-0.001,0.226,0.001,0.000,0
20260703_204435,case01_baseline_boxes,6,294.5,1.000,7.079,642.897,-1.437,739.346,-9.275,-0.001,0.875,33.537,-0.527,0.001,0.062,0.531,0.011,0.001,0.178,0.035,-84.550,-0.040,-0.004,0.083,0.001,0.002,0.000,-0.001,-0.001,0.000,-0.096,-0.003,0.454,0.000,1,1,1,1,-0.004,-0.009,0.052,-0.225,0.001,0.001,-0.001,-0.001,0.225,0.001,0.000,0
20260703_204435,case01_baseline_boxes,6,294.5,1.000,7.179,641.965,-1.437,739.434,-9.325,-0.001,0.881,33.721,-0.509,0.001,0.060,0.513,0.012,0.001,0.175,0.034,-84.543,-0.032,-0.003,0.071,0.000,0.002,0.000,-0.001,-0.001,0.000,-0.097,-0.003,0.447,0.000,1,1,1,1,-0.004,-0.009,0.051,-0.225,0.001,0.001,-0.001,-0.001,0.225,0.001,0.000,0
20260703_204435,case01_baseline_boxes,6,294.5,1.000,7.279,641.028,-1.437,739.523,-9.375,0.000,0.887,33.900,-0.493,0.001,0.058,0.496,0.011,0.001,0.172,0.034,-84.536,-0.027,-0.003,0.068,0.000,0.002,0.000,-0.001,-0.001,0.000,-0.113,-0.003,0.439,0.000,1,1,1,1,-0.003,-0.009,0.051,-0.225,0.002,0.002,-0.001,-0.001,0.225,0.002,0.000,0
20260703_204435,case01_baseline_boxes,6,294.5,1.000,7.379,640.085,-1.437,739.612,-9.422,0.000,0.893,34.072,-0.476,0.001,0.057,0.479,0.011,0.001,0.170,0.034,-84.529,-0.021,-0.004,0.064,0.000,0.002,0.000,-0.001,-0.001,0.000,-0.114,-0.004,0.432,0.000,1,1,1,1,-0.003,-0.008,0.050,-0.224,0.002,0.002,-0.001,-0.001,0.224,0.002,0.000,0
20260703_204435,case01_baseline_boxes,6,294.5,1.000,7.479,639.136,-1.437,739.702,-9.468,0.000,0.898,34.239,-0.459,0.001,0.054,0.463,0.010,0.001,0.169,0.033,-84.523,-0.016,-0.003,0.060,0.000,0.002,0.000,-0.001,-0.001,0.000,-0.116,-0.004,0.426,0.000,1,1,1,1,-0.003,-0.008,0.049,-0.224,0.001,0.001,-0.001,-0.001,0.224,0.001,0.000,0
20260703_204435,case01_baseline_boxes,6,294.5,1.000,7.579,638.185,-1.437,739.792,-9.513,0.000,0.904,34.400,-0.444,0.001,0.052,0.447,0.010,0.001,0.168,0.033,-84.518,-0.010,-0.003,0.056,0.000,0.001,0.000,-0.001,-0.001,0.000,-0.116,-0.004,0.419,0.000,1,1,1,1,-0.003,-0.008,0.049,-0.224,0.001,0.001,-0.001,-0.001,0.224,0.001,0.000,0
20260703_204435,case01_baseline_boxes,6,294.5,1.000,7.687,637.154,-1.438,739.890,-9.594,0.000,0.913,34.696,-0.818,0.001,0.090,0.823,0.011,0.002,0.167,0.033,-84.512,-0.003,-0.003,0.055,0.000,0.000,0.000,0.000,-0.010,0.003,-0.120,-0.004,0.418,0.000,1,1,1,1,0.002,0.007,0.063,0.306,0.002,0.002,-0.002,-0.002,0.306,0.002,0.000,0
20260703_204435,case01_baseline_boxes,6,294.5,1.000,7.795,636.116,-1.438,739.989,-9.605,0.000,0.914,34.735,-0.108,0.001,0.018,0.109,0.008,0.001,0.168,0.032,-84.507,0.003,-0.003,0.053,0.000,0.001,0.000,-0.002,0.009,-0.003,-0.128,-0.004,0.406,0.000,1,1,1,1,-0.003,-0.008,0.047,-0.222,0.001,0.001,-0.001,-0.001,0.222,0.001,0.000,0
20260703_204435,case01_baseline_boxes,6,294.5,1.000,7.903,635.076,-1.438,740.088,-9.683,0.000,0.923,35.018,-0.780,0.001,0.085,0.785,0.010,0.001,0.168,0.032,-84.502,0.008,-0.003,0.049,0.000,0.000,0.000,0.000,-0.010,0.003,-0.130,-0.004,0.405,0.000,1,1,1,1,0.002,0.007,0.061,0.300,0.002,0.002,-0.001,-0.001,0.300,0.002,0.000,0
20260703_204435,case01_baseline_boxes,6,294.5,1.000,8.011,634.031,-1.438,740.188,-9.691,0.000,0.924,35.046,-0.079,0.000,0.014,0.080,0.006,0.000,0.170,0.032,-84.498,0.014,-0.002,0.043,0.000,0.001,0.000,-0.001,0.009,-0.003,-0.136,-0.004,0.394,0.000,1,1,1,1,-0.003,-0.007,0.046,-0.221,0.001,0.001,-0.001,-0.001,0.221,0.001,0.000,0
20260703_204435,case01_baseline_boxes,6,294.5,1.000,8.115,633.017,-1.437,740.285,-9.728,0.000,0.929,35.180,-0.369,0.001,0.042,0.371,0.007,0.001,0.171,0.031,-84.494,0.017,-0.003,0.040,0.000,0.001,0.000,-0.001,-0.001,0.000,-0.137,-0.005,0.388,0.000,1,1,1,1,-0.003,-0.007,0.046,-0.220,0.001,0.001,-0.001,-0.001,0.220,0.001,0.000,0
20260703_204435,case01_baseline_boxes,6,294.5,1.000,8.223,631.966,-1.437,740.385,-9.801,0.000,0.936,35.444,-0.729,0.001,0.077,0.733,0.007,0.001,0.174,0.031,-84.490,0.021,-0.003,0.037,0.000,0.000,0.000,0.000,-0.010,0.003,-0.143,-0.005,0.388,0.000,1,1,1,1,0.002,0.006,0.058,0.293,0.002,0.002,-0.001,-0.001,0.293,0.002,0.000,0
20260703_204435,case01_baseline_boxes,6,294.5,1.000,8.335,630.865,-1.437,740.490,-9.805,0.000,0.937,35.458,-0.040,0.000,0.008,0.040,0.004,0.000,0.176,0.031,-84.487,0.024,-0.002,0.033,0.000,0.001,0.000,-0.001,0.009,-0.003,-0.146,-0.004,0.377,0.000,1,1,1,1,-0.003,-0.007,0.045,-0.219,0.001,0.001,-0.001,-0.001,0.219,0.001,0.000,0
20260703_204435,case01_baseline_boxes,6,294.5,1.000,8.447,629.761,-1.437,740.596,-9.875,0.000,0.944,35.711,-0.697,0.000,0.073,0.701,0.006,0.001,0.179,0.031,-84.484,0.026,-0.002,0.029,0.000,0.000,0.000,0.000,-0.010,0.003,-0.151,-0.004,0.377,0.000,1,1,1,1,0.002,0.006,0.057,0.289,0.002,0.002,-0.001,-0.001,0.289,0.002,0.000,0
20260703_204435,case01_baseline_boxes,6,294.5,1.000,8.555,628.697,-1.437,740.697,-9.876,0.000,0.945,35.717,-0.016,0.000,0.004,0.017,0.002,0.000,0.181,0.030,-84.481,0.026,-0.003,0.025,0.000,0.001,0.000,-0.001,0.009,-0.003,-0.156,-0.005,0.367,0.000,1,1,1,1,-0.003,-0.006,0.043,-0.217,0.001,0.001,-0.001,-0.001,0.217,0.001,0.000,0
20260703_204435,case01_baseline_boxes,6,294.5,1.000,8.667,627.585,-1.437,740.804,-9.943,0.000,0.952,35.958,-0.667,0.000,0.068,0.671,0.004,0.001,0.184,0.030,-84.479,0.026,-0.002,0.021,0.000,0.000,0.000,0.001,-0.010,0.003,-0.142,-0.005,0.367,0.000,1,1,1,1,0.002,0.006,0.055,0.284,0.002,0.002,-0.001,-0.001,0.284,0.002,0.000,0
20260703_204435,case01_baseline_boxes,6,294.5,1.000,8.775,626.517,-1.437,740.906,-9.942,0.000,0.952,35.956,0.005,0.000,0.000,-0.005,0.001,0.000,0.186,0.030,-84.477,0.026,-0.002,0.018,0.000,0.001,0.000,0.000,0.009,-0.003,-0.147,-0.005,0.357,0.000,1,1,1,1,-0.003,-0.006,0.042,-0.215,0.001,0.001,-0.001,-0.001,0.215,0.001,0.000,0
20260703_204435,case01_baseline_boxes,6,294.5,1.000,8.879,625.478,-1.437,741.006,-9.971,0.000,0.954,36.059,-0.285,0.000,0.029,0.286,0.001,0.000,0.189,0.030,-84.476,0.022,-0.002,0.015,0.000,0.001,0.000,0.000,-0.001,0.000,-0.150,-0.005,0.353,0.000,1,1,1,1,-0.003,-0.006,0.042,-0.215,0.001,0.001,-0.001,-0.001,0.215,0.001,0.000,0
20260703_204435,case01_baseline_boxes,6,294.5,1.000,8.983,624.435,-1.437,741.105,-10.034,0.000,0.961,36.286,-0.627,0.000,0.062,0.630,0.001,0.000,0.191,0.030,-84.475,0.021,-0.002,0.010,0.000,0.000,0.000,0.001,-0.010,0.003,-0.153,-0.005,0.354,0.000,1,1,1,1,0.002,0.006,0.053,0.278,0.002,0.002,-0.001,-0.001,0.278,0.002,0.000,0
20260703_204435,case01_baseline_boxes,6,294.5,1.000,9.087,623.391,-1.437,741.205,-10.060,0.000,0.963,36.381,-0.264,0.000,0.024,0.265,-0.001,0.000,0.193,0.030,-84.474,0.018,-0.001,0.006,0.000,0.000,0.000,0.000,-0.001,0.000,-0.172,-0.005,0.350,0.000,1,1,1,1,0.002,0.005,0.053,0.276,0.002,0.002,-0.001,-0.001,0.276,0.002,0.000,0
20260703_204435,case01_baseline_boxes,6,294.5,1.000,9.187,622.385,-1.437,741.302,-10.085,0.000,0.965,36.473,-0.254,0.000,0.023,0.255,-0.001,0.000,0.194,0.029,-84.474,0.016,-0.002,0.003,0.000,0.000,0.000,0.000,-0.001,0.000,-0.174,-0.005,0.346,0.000,1,1,1,1,0.002,0.005,0.052,0.274,0.002,0.002,-0.001,-0.001,0.274,0.002,0.000,0
20260703_204435,case01_baseline_boxes,6,294.5,1.000,9.295,621.299,-1.437,741.406,-10.080,0.000,0.965,36.455,0.050,-0.001,-0.008,-0.051,-0.003,-0.001,0.195,0.029,-84.474,0.012,-0.002,0.001,0.000,0.000,0.000,0.000,0.008,-0.003,-0.176,-0.005,0.338,0.000,1,1,1,1,-0.003,-0.006,0.040,-0.211,0.001,0.001,-0.001,-0.001,0.211,0.001,0.000,0
20260703_204435,case01_baseline_boxes,6,294.5,1.000,9.399,620.247,-1.437,741.506,-10.104,0.000,0.967,36.541,-0.238,0.000,0.020,0.239,-0.003,0.000,0.196,0.029,-84.474,0.010,-0.002,-0.003,0.000,0.000,0.000,0.000,-0.001,0.000,-0.179,-0.005,0.334,0.000,1,1,1,1,-0.003,-0.006,0.040,-0.211,0.001,0.001,-0.001,-0.001,0.211,0.001,0.000,0
20260703_204435,case01_baseline_boxes,6,294.5,1.000,9.503,619.194,-1.437,741.607,-10.161,0.000,0.972,36.747,-0.570,0.000,0.053,0.573,-0.002,0.000,0.197,0.029,-84.475,0.006,-0.001,-0.007,0.000,-0.001,0.000,0.001,-0.009,0.003,-0.183,-0.006,0.335,0.000,1,1,1,1,0.002,0.005,0.050,0.269,0.002,0.002,-0.001,-0.001,0.269,0.002,0.000,0
20260703_204435,case01_baseline_boxes,6,294.5,1.000,9.607,618.138,-1.437,741.708,-10.183,0.000,0.974,36.827,-0.220,0.000,0.018,0.221,-0.003,0.000,0.197,0.029,-84.476,0.003,-0.001,-0.011,0.000,-0.001,0.000,0.000,0.000,0.000,-0.184,-0.006,0.332,0.000,1,1,1,1,0.002,0.005,0.050,0.267,0.002,0.002,-0.001,-0.001,0.267,0.002,0.000,0
20260703_204435,case01_baseline_boxes,6,294.5,1.000,9.711,617.079,-1.437,741.809,-10.175,0.000,0.972,36.797,0.081,-0.001,-0.014,-0.082,-0.006,-0.001,0.197,0.029,-84.477,0.002,-0.002,-0.014,0.000,0.000,0.000,0.000,0.008,-0.003,-0.190,-0.006,0.324,0.000,1,1,1,1,-0.003,-0.005,0.039,-0.208,0.001,0.001,-0.001,-0.001,0.208,0.001,0.000,0
20260703_204435,case01_baseline_boxes,6,294.5,1.000,9.815,616.016,-1.437,741.911,-10.196,0.000,0.974,36.872,-0.206,0.000,0.016,0.207,-0.004,0.000,0.197,0.028,-84.479,-0.002,-0.002,-0.015,0.000,0.000,0.000,0.000,0.000,0.000,-0.188,-0.006,0.321,0.000,1,1,1,1,-0.002,-0.005,0.039,-0.208,0.001,0.001,-0.001,-0.001,0.208,0.001,0.000,0
20260703_204435,case01_baseline_boxes,6,294.5,1.000,9.919,614.953,-1.437,742.012,-10.216,0.000,0.975,36.944,-0.199,0.000,0.015,0.200,-0.004,0.000,0.197,0.028,-84.481,-0.004,-0.002,-0.018,0.000,0.000,0.000,0.000,0.000,0.000,-0.189,-0.006,0.318,0.000,1,1,1,1,-0.002,-0.005,0.038,-0.207,0.001,0.001,-0.001,-0.001,0.207,0.001,0.000,0
20260703_204435,case01_baseline_boxes,6,294.5,1.000,10.027,613.851,-1.437,742.117,-10.268,0.000,0.980,37.132,-0.522,0.000,0.046,0.524,-0.004,0.000,0.196,0.028,-84.483,-0.005,-0.001,-0.023,0.000,-0.001,0.000,0.001,-0.009,0.003,-0.191,-0.006,0.319,0.000,1,1,1,1,0.002,0.005,0.048,0.262,0.002,0.002,-0.001,-0.001,0.262,0.002,0.000,0
20260703_204435,case01_baseline_boxes,6,294.5,1.000,10.131,612.782,-1.437,742.220,-10.257,0.000,0.978,37.093,0.107,0.000,-0.018,-0.109,-0.008,0.000,0.196,0.028,-84.485,-0.007,-0.002,-0.025,0.000,0.000,0.000,0.000,0.008,-0.003,-0.199,-0.007,0.312,0.000,1,1,1,1,-0.002,-0.005,0.038,-0.205,0.001,0.001,-0.001,-0.001,0.205,0.001,0.000,0
20260703_204435,case01_baseline_boxes,6,294.5,1.000,10.235,611.714,-1.437,742.321,-10.275,0.000,0.979,37.158,-0.178,0.000,0.012,0.179,-0.006,0.000,0.195,0.028,-84.488,-0.009,-0.002,-0.026,0.000,0.000,0.000,0.000,0.000,0.000,-0.196,-0.007,0.309,0.000,1,1,1,1,-0.002,-0.005,0.037,-0.205,0.001,0.001,-0.001,-0.001,0.205,0.001,0.000,0
20260703_204435,case01_baseline_boxes,6,294.5,1.000,10.339,610.640,-1.437,742.424,-10.292,0.000,0.980,37.220,-0.173,0.000,0.011,0.173,-0.006,0.000,0.194,0.028,-84.491,-0.009,-0.002,-0.028,0.000,0.000,0.000,0.000,0.000,0.000,-0.195,-0.007,0.307,0.000,1,1,1,1,-0.002,-0.005,0.037,-0.204,0.001,0.001,-0.001,-0.001,0.204,0.001,0.000,0
20260703_204435,case01_baseline_boxes,6,294.5,1.000,10.451,609.486,-1.437,742.534,-10.312,0.000,0.982,37.291,-0.199,0.000,0.011,0.199,-0.008,0.000,0.193,0.028,-84.495,-0.010,-0.001,-0.037,0.000,0.000,0.000,0.000,-0.001,0.000,-0.205,-0.007,0.304,0.000,1,1,1,1,-0.002,-0.005,0.037,-0.204,0.001,0.001,-0.001,-0.001,0.204,0.001,0.000,0
20260703_204435,case01_baseline_boxes,6,294.5,1.000,10.551,608.452,-1.437,742.632,-10.328,0.000,0.982,37.349,-0.160,0.000,0.008,0.160,-0.007,0.000,0.192,0.027,-84.498,-0.009,-0.002,-0.034,0.000,0.000,0.000,0.000,0.000,0.000,-0.206,-0.007,0.302,0.000,1,1,1,1,-0.002,-0.005,0.036,-0.203,0.001,0.001,-0.001,-0.001,0.203,0.001,0.000,0
20260703_204435,case01_baseline_boxes,6,294.5,1.000,10.659,607.335,-1.437,742.738,-10.344,0.000,0.983,37.405,-0.154,0.000,0.008,0.154,-0.007,0.000,0.191,0.027,-84.502,-0.009,-0.002,-0.038,0.000,0.000,0.000,0.000,0.000,0.000,-0.203,-0.007,0.299,0.000,1,1,1,1,-0.002,-0.005,0.036,-0.202,0.001,0.001,-0.001,-0.001,0.202,0.001,0.000,0
20260703_204435,case01_baseline_boxes,6,294.5,1.000,10.759,606.296,-1.437,742.837,-10.358,0.000,0.984,37.458,-0.149,0.000,0.006,0.149,-0.008,0.000,0.190,0.027,-84.506,-0.008,-0.001,-0.039,0.000,0.000,0.000,0.000,0.000,0.000,-0.205,-0.007,0.297,0.000,1,1,1,1,-0.002,-0.005,0.036,-0.202,0.001,0.001,-0.001,-0.001,0.202,0.001,0.000,0
20260703_204435,case01_baseline_boxes,6,294.5,1.000,10.867,605.173,-1.437,742.943,-10.404,0.000,0.987,37.624,-0.460,0.000,0.036,0.462,-0.008,0.001,0.189,0.027,-84.510,-0.008,-0.001,-0.046,0.000,-0.001,0.000,0.000,-0.009,0.003,-0.210,-0.007,0.299,0.000,1,1,1,1,0.002,0.005,0.045,0.252,0.002,0.002,-0.001,-0.001,0.252,0.002,0.000,0
20260703_204435,case01_baseline_boxes,6,294.5,1.000,10.971,604.097,-1.437,743.045,-10.390,0.000,0.985,37.570,0.149,0.000,-0.026,-0.151,-0.011,0.000,0.189,0.027,-84.515,-0.007,-0.001,-0.047,0.000,0.000,0.000,-0.001,0.008,-0.003,-0.212,-0.007,0.293,0.000,1,1,1,1,-0.002,-0.005,0.036,-0.200,0.001,0.001,-0.001,-0.001,0.200,0.001,0.000,0
20260703_204435,case01_baseline_boxes,6,294.5,1.000,11.083,602.927,-1.437,743.156,-10.434,0.000,0.988,37.731,-0.446,0.000,0.033,0.447,-0.009,0.001,0.188,0.027,-84.520,-0.007,-0.002,-0.051,0.000,-0.001,0.000,0.000,-0.009,0.003,-0.217,-0.007,0.295,0.000,1,1,1,1,0.002,0.005,0.045,0.250,0.002,0.002,-0.001,-0.001,0.250,0.002,0.000,0
20260703_204435,case01_baseline_boxes,6,294.5,1.000,11.191,601.801,-1.437,743.263,-10.418,0.000,0.986,37.674,0.158,0.000,-0.026,-0.159,-0.011,0.000,0.187,0.027,-84.526,-0.005,0.000,-0.055,0.000,0.000,0.000,-0.001,0.008,-0.003,-0.217,-0.007,0.289,0.000,1,1,1,1,-0.002,-0.005,0.035,-0.199,0.001,0.001,-0.001,-0.001,0.199,0.001,0.000,0
20260703_204435,case01_baseline_boxes,6,294.5,1.000,11.303,600.631,-1.437,743.373,-10.462,0.000,0.989,37.830,-0.433,0.000,0.031,0.434,-0.010,0.001,0.187,0.027,-84.531,-0.003,-0.002,-0.056,0.000,-0.001,0.000,0.000,-0.009,0.003,-0.222,-0.007,0.291,0.000,1,1,1,1,0.002,0.004,0.044,0.247,0.002,0.002,-0.001,-0.001,0.247,0.002,0.000,0
20260703_204435,case01_baseline_boxes,6,294.5,1.000,11.411,599.502,-1.437,743.480,-10.445,0.000,0.986,37.770,0.166,0.000,-0.029,-0.168,-0.013,0.000,0.187,0.027,-84.537,0.000,-0.001,-0.060,0.000,-0.001,0.000,-0.001,0.008,-0.003,-0.229,-0.008,0.285,0.000,1,1,1,1,-0.002,-0.005,0.035,-0.198,0.001,0.001,0.000,0.000,0.198,0.001,0.000,0
20260703_204435,case01_baseline_boxes,6,294.5,1.000,11.519,598.372,-1.437,743.587,-10.457,0.000,0.986,37.811,-0.115,0.000,-0.002,0.115,-0.013,0.000,0.187,0.026,-84.543,0.001,-0.001,-0.061,0.000,-0.001,0.000,0.000,-0.001,0.000,-0.230,-0.008,0.283,0.000,1,1,1,1,-0.002,-0.005,0.034,-0.197,0.001,0.001,0.000,0.000,0.197,0.001,0.000,0
20260703_204435,case01_baseline_boxes,6,294.5,1.000,11.627,597.240,-1.437,743.693,-10.498,0.000,0.988,37.961,-0.417,0.000,0.028,0.417,-0.012,0.001,0.187,0.026,-84.550,0.000,0.000,-0.067,0.000,-0.001,0.000,0.000,-0.009,0.003,-0.232,-0.008,0.286,0.000,1,1,1,1,0.002,0.004,0.043,0.244,0.002,0.002,-0.001,-0.001,0.244,0.002,0.000,0
20260703_204435,case01_baseline_boxes,6,294.5,1.000,11.735,596.110,-1.437,743.799,-10.481,0.000,0.985,37.897,0.176,0.000,-0.031,-0.179,-0.014,0.000,0.187,0.026,-84.557,0.002,-0.001,-0.068,0.000,-0.001,0.000,-0.001,0.008,-0.003,-0.234,-0.008,0.280,0.000,1,1,1,1,-0.002,-0.005,0.034,-0.196,0.001,0.001,0.000,0.000,0.196,0.001,0.000,0
20260703_204435,case01_baseline_boxes,6,294.5,1.000,11.835,595.059,-1.437,743.898,-10.491,0.000,0.985,37.934,-0.103,0.000,-0.003,0.102,-0.013,0.000,0.188,0.026,-84.563,0.003,-0.001,-0.066,0.000,-0.001,0.000,0.000,0.000,0.000,-0.233,-0.008,0.278,0.000,1,1,1,1,-0.002,-0.005,0.034,-0.196,0.001,0.001,0.000,0.000,0.196,0.001,0.000,0
20260703_204435,case01_baseline_boxes,6,294.5,1.000,11.935,594.005,-1.437,743.997,-10.501,0.000,0.985,37.969,-0.100,0.000,-0.003,0.099,-0.013,0.000,0.188,0.026,-84.570,0.004,-0.001,-0.068,0.000,-0.001,0.000,0.000,0.000,0.000,-0.232,-0.008,0.277,0.000,1,1,1,1,-0.002,-0.005,0.034,-0.195,0.001,0.001,0.000,0.000,0.195,0.001,0.000,0
20260703_204435,case01_baseline_boxes,6,294.5,1.000,12.043,592.873,-1.437,744.103,-10.541,0.000,0.987,38.112,-0.396,0.000,0.024,0.397,-0.014,0.001,0.189,0.026,-84.577,0.005,-0.001,-0.074,0.000,-0.002,0.000,0.000,-0.008,0.003,-0.236,-0.008,0.279,0.000,1,1,1,1,0.001,0.004,0.042,0.241,0.002,0.002,-0.001,-0.001,0.241,0.002,0.000,0
20260703_204435,case01_baseline_boxes,6,294.5,1.000,12.155,591.692,-1.437,744.214,-10.522,0.000,0.984,38.044,0.188,0.000,-0.035,-0.191,-0.017,0.000,0.189,0.026,-84.586,0.006,-0.001,-0.081,0.000,-0.001,0.000,-0.001,0.008,-0.002,-0.241,-0.008,0.274,0.000,1,1,1,1,-0.002,-0.004,0.033,-0.194,0.001,0.001,0.000,0.000,0.194,0.001,0.000,0
20260703_204435,case01_baseline_boxes,6,294.5,1.000,12.263,590.557,-1.437,744.320,-10.561,0.000,0.986,38.183,-0.387,0.000,0.020,0.387,-0.017,0.001,0.190,0.026,-84.594,0.007,-0.001,-0.081,0.000,-0.002,0.000,0.000,-0.009,0.003,-0.248,-0.008,0.276,0.000,1,1,1,1,0.001,0.004,0.042,0.239,0.002,0.002,-0.001,-0.001,0.239,0.002,0.000,0
20260703_204435,case01_baseline_boxes,6,294.5,1.000,12.367,589.455,-1.437,744.422,-10.569,0.000,0.985,38.214,-0.086,0.000,-0.008,0.084,-0.016,0.000,0.190,0.026,-84.602,0.004,0.000,-0.083,0.000,-0.002,0.000,0.000,0.000,0.000,-0.243,-0.008,0.275,0.000,1,1,1,1,0.001,0.004,0.042,0.238,0.002,0.002,-0.001,-0.001,0.238,0.002,0.000,0
20260703_204435,case01_baseline_boxes,6,294.5,1.000,12.475,588.319,-1.437,744.528,-10.549,0.000,0.981,38.142,0.196,0.000,-0.037,-0.199,-0.019,0.000,0.191,0.026,-84.611,0.007,-0.001,-0.087,0.000,-0.001,0.000,0.000,0.008,-0.003,-0.249,-0.008,0.270,0.000,1,1,1,1,-0.002,-0.004,0.033,-0.192,0.001,0.001,0.000,0.000,0.192,0.001,0.000,0
20260703_204435,case01_baseline_boxes,6,294.5,1.000,12.575,587.262,-1.437,744.626,-10.558,0.000,0.980,38.171,-0.081,0.000,-0.010,0.079,-0.017,0.000,0.192,0.026,-84.619,0.007,0.000,-0.084,0.000,-0.001,0.000,0.000,-0.001,0.000,-0.274,-0.008,0.269,0.000,1,1,1,1,-0.002,-0.004,0.033,-0.192,0.002,0.002,0.000,0.000,0.192,0.002,0.000,0
20260703_204435,case01_baseline_boxes,6,294.5,1.000,12.675,586.204,-1.437,744.724,-10.565,0.000,0.979,38.198,-0.078,0.000,-0.010,0.077,-0.017,0.000,0.192,0.026,-84.628,0.006,-0.001,-0.087,0.000,-0.001,0.000,0.000,-0.001,0.000,-0.273,-0.009,0.268,0.000,1,1,1,1,-0.002,-0.004,0.033,-0.191,0.002,0.002,0.000,0.000,0.191,0.002,0.000,0
20260703_204435,case01_baseline_boxes,6,294.5,1.000,12.775,585.145,-1.437,744.822,-10.573,0.000,0.978,38.225,-0.075,0.000,-0.011,0.074,-0.017,0.000,0.193,0.026,-84.637,0.005,-0.001,-0.090,0.000,-0.001,0.000,0.000,0.000,0.000,-0.269,-0.009,0.266,0.000,1,1,1,1,-0.002,-0.004,0.033,-0.191,0.002,0.002,0.000,0.000,0.191,0.002,0.000,0
20260703_204435,case01_baseline_boxes,6,294.5,1.000,12.887,583.955,-1.437,744.932,-10.609,0.000,0.979,38.356,-0.364,0.000,0.012,0.363,-0.022,0.000,0.194,0.026,-84.647,0.006,0.000,-0.106,0.000,-0.002,0.000,0.001,-0.009,0.002,-0.274,-0.010,0.269,0.000,1,1,1,1,0.001,0.004,0.041,0.234,0.002,0.002,-0.001,-0.001,0.234,0.002,0.000,0
20260703_204435,case01_baseline_boxes,6,294.5,1.000,12.995,582.816,-1.437,745.037,-10.589,0.000,0.975,38.280,0.206,0.000,-0.047,-0.209,-0.028,0.000,0.194,0.026,-84.658,0.006,0.000,-0.109,0.000,-0.001,0.000,0.000,0.006,-0.002,-0.305,-0.010,0.264,0.000,1,1,1,1,-0.002,-0.004,0.032,-0.190,0.002,0.002,0.000,0.000,0.190,0.002,0.000,0
20260703_204435,case01_baseline_boxes,6,294.5,1.000,13.103,581.668,-1.437,745.143,-10.624,0.000,0.975,38.408,-0.357,0.000,0.008,0.356,-0.026,0.000,0.195,0.026,-84.670,0.005,-0.001,-0.118,0.000,-0.002,0.000,0.000,-0.009,0.002,-0.304,-0.010,0.267,0.000,1,1,1,1,0.001,0.004,0.041,0.233,0.002,0.002,-0.001,-0.001,0.233,0.002,0.000,0
20260703_204435,case01_baseline_boxes,6,294.5,1.000,13.211,580.519,-1.437,745.248,-10.603,0.000,0.971,38.332,0.210,0.000,-0.044,-0.213,-0.024,0.000,0.195,0.026,-84.682,0.004,0.000,-0.124,0.000,-0.002,0.000,0.000,0.007,-0.002,-0.300,-0.010,0.262,0.000,1,1,1,1,-0.002,-0.004,0.032,-0.189,0.002,0.002,0.000,0.000,0.189,0.002,0.000,0
20260703_204435,case01_baseline_boxes,6,294.5,1.000,13.323,579.332,-1.437,745.357,-10.638,0.000,0.972,38.457,-0.349,0.000,0.011,0.349,-0.021,0.000,0.195,0.026,-84.695,0.004,-0.001,-0.127,0.000,-0.002,0.000,0.001,-0.008,0.002,-0.291,-0.010,0.265,0.000,1,1,1,1,0.001,0.004,0.040,0.232,0.002,0.002,-0.001,-0.001,0.232,0.002,0.000,0
20260703_204435,case01_baseline_boxes,6,294.5,1.000,13.431,578.184,-1.437,745.462,-10.617,0.000,0.968,38.379,0.214,0.000,-0.042,-0.217,-0.022,0.000,0.196,0.025,-84.707,0.003,0.000,-0.124,0.000,-0.002,0.000,0.000,0.008,-0.002,-0.287,-0.010,0.260,0.000,1,1,1,1,-0.002,-0.004,0.032,-0.188,0.001,0.001,0.000,0.000,0.188,0.001,0.000,0
20260703_204435,case01_baseline_boxes,6,294.5,1.000,13.535,577.081,-1.437,745.562,-10.623,0.000,0.967,38.399,-0.058,0.000,-0.014,0.057,-0.019,0.000,0.196,0.025,-84.719,0.002,-0.001,-0.115,0.000,-0.002,0.000,0.000,0.000,0.000,-0.280,-0.009,0.259,0.000,1,1,1,1,-0.002,-0.004,0.032,-0.188,0.001,0.001,0.000,0.000,0.188,0.001,0.000,0
20260703_204435,case01_baseline_boxes,6,294.5,1.000,13.639,575.974,-1.437,745.663,-10.628,0.000,0.965,38.419,-0.056,0.000,-0.014,0.055,-0.019,0.000,0.196,0.025,-84.730,0.001,-0.001,-0.114,0.000,-0.002,0.000,0.000,0.000,0.000,-0.274,-0.009,0.259,0.000,1,1,1,1,-0.002,-0.004,0.032,-0.188,0.001,0.001,0.000,0.000,0.188,0.001,0.000,0
20260703_204435,case01_baseline_boxes,6,294.5,1.000,13.747,574.820,-1.437,745.767,-10.662,0.000,0.966,38.541,-0.338,0.000,0.010,0.337,-0.021,0.000,0.196,0.025,-84.742,-0.001,0.000,-0.119,0.000,-0.002,0.000,0.001,-0.008,0.002,-0.272,-0.009,0.262,0.000,1,1,1,1,0.001,0.004,0.040,0.229,0.002,0.002,-0.001,-0.001,0.229,0.002,0.000,0
20260703_204435,case01_baseline_boxes,6,294.5,1.000,13.851,573.715,-1.437,745.867,-10.640,0.000,0.962,38.460,0.221,0.000,-0.043,-0.224,-0.023,0.000,0.196,0.025,-84.753,0.000,0.000,-0.113,0.000,-0.001,0.000,0.000,0.008,-0.002,-0.274,-0.009,0.257,0.000,1,1,1,1,-0.002,-0.004,0.032,-0.187,0.001,0.001,0.000,0.000,0.187,0.001,0.000,0
20260703_204435,case01_baseline_boxes,6,294.5,1.000,13.955,572.605,-1.437,745.968,-10.645,0.000,0.960,38.478,-0.051,0.000,-0.017,0.049,-0.021,0.000,0.196,0.025,-84.765,-0.001,-0.001,-0.112,0.000,-0.002,0.000,0.000,0.000,0.000,-0.272,-0.009,0.256,0.000,1,1,1,1,-0.002,-0.004,0.031,-0.187,0.001,0.001,0.000,0.000,0.187,0.001,0.000,0
20260703_204435,case01_baseline_boxes,6,294.5,1.000,14.059,571.497,-1.437,746.068,-10.650,0.000,0.958,38.494,-0.049,0.000,-0.017,0.047,-0.022,0.000,0.196,0.025,-84.776,-0.001,-0.001,-0.113,0.000,-0.002,0.000,0.000,0.000,0.000,-0.298,-0.009,0.255,0.000,1,1,1,1,-0.002,-0.004,0.031,-0.186,0.002,0.002,0.000,0.000,0.186,0.002,0.000,0
20260703_204435,case01_baseline_boxes,6,294.5,1.000,14.163,570.386,-1.437,746.168,-10.683,0.000,0.959,38.612,-0.328,0.000,0.006,0.328,-0.023,0.000,0.196,0.025,-84.788,-0.002,0.000,-0.116,0.000,-0.002,0.000,0.000,-0.008,0.002,-0.300,-0.009,0.259,0.000,1,1,1,1,0.001,0.004,0.039,0.228,0.002,0.002,-0.001,-0.001,0.228,0.002,0.000,0
20260703_204435,case01_baseline_boxes,6,294.5,1.000,14.271,569.233,-1.437,746.271,-10.660,0.000,0.954,38.530,0.226,0.000,-0.046,-0.229,-0.026,0.000,0.195,0.025,-84.800,-0.001,0.000,-0.123,0.000,-0.002,0.000,0.000,0.007,-0.002,-0.307,-0.010,0.254,0.000,1,1,1,1,-0.002,-0.004,0.031,-0.186,0.002,0.002,0.000,0.000,0.186,0.002,0.000,0
20260703_204435,case01_baseline_boxes,6,294.5,1.000,14.375,568.128,-1.437,746.370,-10.665,0.000,0.953,38.545,-0.044,0.000,-0.019,0.042,-0.023,0.000,0.195,0.025,-84.812,-0.003,-0.001,-0.119,0.000,-0.002,0.000,0.000,0.000,0.000,-0.304,-0.010,0.253,0.000,1,1,1,1,-0.002,-0.004,0.031,-0.185,0.002,0.002,0.000,0.000,0.185,0.002,0.000,0
20260703_204435,case01_baseline_boxes,6,294.5,1.000,14.479,567.013,-1.437,746.469,-10.669,0.000,0.951,38.560,-0.043,0.000,-0.020,0.041,-0.024,0.000,0.195,0.025,-84.824,-0.003,0.000,-0.123,0.000,-0.002,0.000,0.000,0.000,0.000,-0.300,-0.010,0.253,0.000,1,1,1,1,-0.002,-0.004,0.031,-0.185,0.002,0.002,0.000,0.000,0.185,0.002,0.000,0
20260703_204435,case01_baseline_boxes,6,294.5,1.000,14.583,565.902,-1.437,746.568,-10.701,0.000,0.951,38.675,-0.320,0.000,0.003,0.319,-0.025,0.001,0.195,0.025,-84.837,-0.002,0.000,-0.127,0.000,-0.003,0.000,0.000,-0.008,0.002,-0.302,-0.010,0.256,0.000,1,1,1,1,0.001,0.004,0.039,0.226,0.002,0.002,-0.001,-0.001,0.226,0.002,0.000,0
20260703_204435,case01_baseline_boxes,6,294.5,1.000,14.687,564.794,-1.437,746.666,-10.705,0.000,0.949,38.688,-0.039,0.000,-0.022,0.037,-0.025,0.000,0.194,0.025,-84.850,-0.002,0.000,-0.129,0.000,-0.003,0.000,0.000,-0.001,0.000,-0.301,-0.010,0.256,0.000,1,1,1,1,0.001,0.004,0.039,0.226,0.002,0.002,-0.001,-0.001,0.226,0.002,0.000,0
20260703_204435,case01_baseline_boxes,6,294.5,1.000,14.795,563.636,-1.437,746.769,-10.682,0.000,0.944,38.603,0.232,0.000,-0.049,-0.235,-0.028,0.000,0.194,0.025,-84.863,-0.002,0.000,-0.138,0.000,-0.002,0.000,0.000,0.007,-0.002,-0.304,-0.010,0.251,0.000,1,1,1,1,-0.002,-0.004,0.031,-0.184,0.001,0.001,0.000,0.000,0.184,0.001,0.000,0
20260703_204435,case01_baseline_boxes,6,294.5,1.000,14.899,562.527,-1.437,746.867,-10.685,0.000,0.941,38.616,-0.037,0.000,-0.023,0.035,-0.026,0.000,0.194,0.025,-84.877,-0.002,-0.001,-0.133,0.000,-0.002,0.000,0.000,-0.001,0.000,-0.331,-0.010,0.251,0.000,1,1,1,1,-0.002,-0.004,0.031,-0.184,0.002,0.002,0.000,0.000,0.184,0.002,0.000,0
20260703_204435,case01_baseline_boxes,6,294.5,1.000,15.007,561.369,-1.437,746.968,-10.717,0.000,0.941,38.728,-0.313,0.000,0.000,0.311,-0.028,0.000,0.194,0.025,-84.891,-0.002,0.000,-0.145,0.000,-0.003,0.000,0.000,-0.008,0.002,-0.336,-0.010,0.254,0.000,1,1,1,1,0.001,0.004,0.039,0.224,0.002,0.002,-0.001,-0.001,0.224,0.002,0.000,0
20260703_204435,case01_baseline_boxes,6,294.5,1.000,15.107,560.298,-1.437,747.063,-10.720,0.000,0.939,38.740,-0.034,0.000,-0.023,0.032,-0.026,0.000,0.194,0.025,-84.905,0.000,0.000,-0.135,0.000,-0.003,0.000,0.000,0.000,0.000,-0.331,-0.011,0.253,0.000,1,1,1,1,0.001,0.004,0.039,0.224,0.002,0.002,-0.001,-0.001,0.224,0.002,0.000,0
20260703_204435,case01_baseline_boxes,6,294.5,1.000,15.207,559.226,-1.437,747.156,-10.723,0.000,0.937,38.751,-0.033,0.000,-0.024,0.031,-0.027,0.000,0.194,0.025,-84.919,0.000,0.000,-0.138,0.000,-0.003,0.000,0.000,0.000,0.000,-0.329,-0.011,0.253,0.000,1,1,1,1,0.001,0.004,0.039,0.224,0.002,0.002,-0.001,-0.001,0.224,0.002,0.000,0
20260703_204435,case01_baseline_boxes,6,294.5,1.000,15.315,558.068,-1.437,747.257,-10.700,0.000,0.932,38.664,0.236,0.000,-0.052,-0.240,-0.031,0.000,0.194,0.025,-84.934,0.000,0.000,-0.151,0.000,-0.002,0.000,-0.001,0.007,-0.002,-0.330,-0.011,0.249,0.000,1,1,1,1,-0.002,-0.004,0.031,-0.183,0.002,0.002,0.000,0.000,0.183,0.002,0.000,0
20260703_204435,case01_baseline_boxes,6,294.5,1.000,15.423,556.914,-1.437,747.358,-10.730,0.000,0.931,38.774,-0.306,0.000,-0.003,0.305,-0.030,0.000,0.194,0.025,-84.949,0.001,-0.001,-0.154,0.000,-0.003,0.000,0.000,-0.008,0.002,-0.332,-0.011,0.252,0.000,1,1,1,1,0.001,0.004,0.038,0.223,0.002,0.002,-0.001,-0.001,0.223,0.002,0.000,0
20260703_204435,case01_baseline_boxes,6,294.5,1.000,15.531,555.758,-1.437,747.458,-10.706,0.000,0.926,38.687,0.238,0.000,-0.054,-0.242,-0.033,0.000,0.194,0.025,-84.965,0.002,0.001,-0.159,0.000,-0.002,0.000,0.000,0.007,-0.002,-0.332,-0.011,0.248,0.000,1,1,1,1,-0.002,-0.004,0.031,-0.183,0.002,0.002,0.000,0.000,0.183,0.002,0.000,0
20260703_204435,case01_baseline_boxes,6,294.5,1.000,15.631,554.685,-1.437,747.550,-10.709,0.000,0.923,38.697,-0.029,0.000,-0.026,0.027,-0.029,0.000,0.194,0.025,-84.980,0.001,-0.001,-0.148,0.000,-0.002,0.000,0.000,0.000,0.000,-0.328,-0.011,0.247,0.000,1,1,1,1,-0.002,-0.004,0.030,-0.182,0.001,0.001,0.000,0.000,0.182,0.001,0.000,0
20260703_204435,case01_baseline_boxes,6,294.5,1.000,15.747,553.441,-1.437,747.657,-10.740,0.000,0.923,38.805,-0.301,0.000,-0.005,0.300,-0.031,0.001,0.195,0.025,-84.997,0.002,0.000,-0.174,0.000,-0.003,0.000,0.000,-0.008,0.002,-0.329,-0.011,0.251,0.000,1,1,1,1,0.001,0.004,0.038,0.222,0.002,0.002,0.000,0.000,0.222,0.002,0.000,0
20260703_204435,case01_baseline_boxes,6,294.5,1.000,15.851,552.326,-1.437,747.753,-10.716,0.000,0.917,38.717,0.240,0.000,-0.055,-0.244,-0.034,0.000,0.195,0.025,-85.013,0.002,0.000,-0.160,0.000,-0.002,0.000,0.000,0.007,-0.002,-0.331,-0.011,0.246,0.000,1,1,1,1,-0.002,-0.004,0.030,-0.182,0.001,0.001,0.000,0.000,0.182,0.001,0.000,0
20260703_204435,case01_baseline_boxes,6,294.5,1.000,15.951,551.252,-1.437,747.845,-10.718,0.000,0.914,38.726,-0.026,0.000,-0.028,0.024,-0.030,0.000,0.195,0.025,-85.029,0.002,0.000,-0.155,0.000,-0.002,0.000,0.000,0.000,0.000,-0.362,-0.012,0.246,0.000,1,1,1,1,-0.002,-0.004,0.030,-0.182,0.002,0.002,0.000,0.000,0.182,0.002,0.000,0
20260703_204435,case01_baseline_boxes,6,294.5,1.000,16.063,550.048,-1.437,747.947,-10.748,0.000,0.914,38.832,-0.298,0.000,-0.007,0.296,-0.033,0.000,0.195,0.025,-85.046,0.003,-0.001,-0.175,0.000,-0.003,0.000,0.000,-0.008,0.002,-0.362,-0.012,0.250,0.000,1,1,1,1,0.001,0.004,0.038,0.221,0.002,0.002,0.000,0.000,0.221,0.002,0.000,0
20260703_204435,case01_baseline_boxes,6,294.5,1.000,16.199,548.587,-1.437,748.071,-10.724,0.000,0.908,38.745,0.237,0.000,-0.062,-0.242,-0.041,0.000,0.196,0.025,-85.068,0.004,0.000,-0.217,0.000,-0.002,0.000,0.000,0.007,-0.002,-0.341,-0.011,0.245,0.000,1,1,1,1,-0.002,-0.004,0.030,-0.181,0.001,0.001,0.000,0.000,0.181,0.001,0.000,0
20260703_204435,case01_baseline_boxes,6,294.5,1.000,16.307,547.426,-1.241,748.162,-10.838,0.133,0.761,39.114,-1.134,1.332,-1.466,1.027,-1.567,1.302,-0.407,-1.049,-85.054,-6.024,-10.732,0.140,0.010,-0.013,-0.053,0.102,-0.103,-0.526,-0.492,-0.018,0.220,0.000,1,1,1,1,-0.042,0.365,0.096,0.088,-0.010,0.038,-0.013,-0.013,0.365,0.038,0.008,0
20260703_204435,case01_baseline_boxes,6,294.5,1.000,16.407,546.377,-1.181,748.245,-10.371,0.073,0.833,37.456,4.668,-0.600,0.715,-4.606,1.118,-0.448,-0.678,-1.728,-85.084,-2.711,-6.794,-0.300,0.014,-0.009,-0.084,0.040,0.040,-0.314,-0.583,-0.019,0.300,0.000,0,1,1,1,0.000,0.030,0.063,0.019,0.000,0.009,0.002,0.002,0.063,0.009,0.000,0
20260703_204435,case01_baseline_boxes,6,294.5,1.000,16.519,545.225,-1.212,748.338,-10.278,-0.491,0.823,37.162,0.926,-5.645,-0.097,-1.136,0.063,-5.607,-0.828,-2.082,-85.112,-1.498,-3.544,-0.281,0.020,-0.004,-0.037,0.063,0.050,0.474,-0.510,-0.017,0.313,0.000,0,0,1,1,0.000,0.000,0.045,0.060,0.000,0.000,0.000,0.000,0.060,0.000,0.000,0
20260703_204435,case01_baseline_boxes,6,294.5,1.000,16.619,544.196,-1.275,748.421,-10.281,-0.724,0.823,37.221,-0.025,-2.327,0.004,-0.062,0.041,-2.326,-0.961,-2.161,-85.123,-1.337,-0.787,-0.112,0.024,-0.003,0.003,0.032,0.009,0.400,-0.495,-0.017,0.317,0.000,0,0,1,1,0.000,0.000,0.048,0.378,0.000,0.000,0.000,0.000,0.378,0.000,0.000,0
20260703_204435,case01_baseline_boxes,6,294.5,1.000,16.727,543.093,-1.361,748.510,-10.205,-0.848,0.817,36.981,0.761,-1.242,-0.058,-0.805,0.030,-1.215,-1.106,-1.973,-85.126,-1.451,1.881,-0.025,0.028,0.000,0.051,0.047,0.029,0.480,-0.552,-0.019,0.312,0.000,0,0,1,1,0.000,0.000,0.008,-0.263,0.000,0.000,0.000,0.000,0.263,0.000,0.000,0
20260703_204435,case01_baseline_boxes,6,294.5,1.000,16.827,542.071,-1.397,748.594,-10.148,-0.365,0.839,36.682,0.563,4.837,0.216,-0.426,0.164,4.853,-1.169,-1.379,-85.136,-0.624,5.942,-0.107,0.018,-0.001,0.124,-0.101,-0.013,0.731,-0.698,-0.020,0.325,0.000,0,0,1,1,0.000,0.000,0.040,-0.282,0.000,0.000,0.001,0.001,0.282,0.001,0.000,0
20260703_204435,case01_baseline_boxes,6,294.5,1.000,16.935,540.971,-1.447,748.685,-10.187,-0.437,0.836,36.828,-0.381,-0.728,-0.028,0.370,-0.045,-0.733,-1.201,-0.544,-85.146,-0.317,8.347,-0.101,0.012,-0.003,0.132,-0.064,-0.021,0.081,-0.785,-0.027,0.329,0.000,1,1,1,1,-0.055,-0.126,0.052,0.330,0.009,0.009,-0.001,-0.001,0.330,0.009,0.000,0
20260703_204435,case01_baseline_boxes,6,294.5,1.000,17.047,539.824,-1.478,748.778,-10.234,-0.135,0.828,36.967,-0.479,3.025,-0.086,0.460,-0.189,3.023,-1.188,0.201,-85.178,0.122,7.446,-0.320,0.004,-0.007,0.097,-0.079,-0.035,-0.353,-0.769,-0.026,0.323,0.000,1,1,1,1,0.001,0.346,0.057,-0.214,0.004,0.004,-0.001,-0.001,0.346,0.004,0.000,0
20260703_204435,case01_baseline_boxes,6,294.5,1.000,17.155,538.715,-1.453,748.869,-10.297,0.335,0.850,37.214,-0.623,4.701,0.228,0.597,0.086,4.709,-1.085,0.522,-85.198,1.033,3.210,-0.194,-0.020,-0.003,0.031,-0.243,0.041,-0.663,-0.683,-0.023,0.308,0.000,1,1,1,1,-0.001,-0.228,0.068,0.088,0.003,0.003,-0.003,-0.003,0.228,0.003,0.000,0
20260703_204435,case01_baseline_boxes,6,294.5,1.000,17.263,537.598,-1.422,748.961,-10.354,0.224,0.862,37.412,-0.572,-1.113,0.112,0.592,0.082,-1.105,-0.927,0.628,-85.221,1.581,1.066,-0.233,-0.028,-0.005,0.008,-0.073,-0.020,-0.228,-0.575,-0.019,0.305,0.000,1,1,1,1,0.001,0.142,0.073,0.040,0.001,0.001,-0.003,-0.003,0.142,0.003,0.000,0
20260703_204435,case01_baseline_boxes,6,294.5,1.000,17.371,536.478,-1.405,749.054,-10.377,0.078,0.872,37.491,-0.233,-1.458,0.102,0.256,0.101,-1.454,-0.738,0.608,-85.247,1.884,-0.199,-0.258,-0.033,-0.004,-0.009,-0.058,0.004,-0.173,-0.477,-0.016,0.299,0.000,1,1,1,1,0.000,-0.011,0.063,0.031,0.000,0.000,-0.002,-0.002,0.063,0.002,0.000,0
20260703_204435,case01_baseline_boxes,6,294.5,1.000,17.475,535.403,-1.403,749.144,-10.401,-0.035,0.880,37.576,-0.232,-1.132,0.083,0.248,0.075,-1.129,-0.538,0.506,-85.270,2.008,-1.028,-0.229,-0.037,-0.004,-0.019,-0.033,0.004,-0.100,-0.449,-0.015,0.296,0.000,1,1,1,1,0.000,0.000,0.054,0.031,0.000,0.001,-0.002,-0.002,0.054,0.002,0.000,0
20260703_204435,case01_baseline_boxes,6,294.5,1.000,17.575,534.362,-1.410,749.231,-10.418,-0.105,0.886,37.643,-0.176,-0.699,0.057,0.184,0.046,-0.698,-0.333,0.362,-85.290,2.047,-1.437,-0.200,-0.038,-0.004,-0.024,-0.014,0.004,-0.048,-0.392,-0.013,0.293,0.000,1,1,1,1,0.000,0.000,0.046,0.029,0.001,0.001,-0.001,-0.001,0.046,0.001,0.000,0
20260703_204435,case01_baseline_boxes,6,294.5,1.000,17.683,533.248,-1.169,749.318,-9.964,0.207,0.677,35.961,4.540,3.124,-2.086,-4.745,-1.762,3.018,-0.779,1.006,-85.470,-4.464,6.442,-1.801,-0.024,-0.016,0.043,0.144,-0.120,0.672,-0.248,-0.007,0.371,0.000,1,1,1,1,0.034,0.017,0.211,0.322,-0.033,-0.032,-0.011,0.011,0.322,0.033,0.000,0
20260703_204435,case01_baseline_boxes,6,294.5,1.000,17.787,532.221,-1.061,749.400,-9.865,-0.051,0.788,35.629,0.987,-2.585,1.105,-0.826,1.216,-2.592,-0.827,1.596,-85.554,-0.482,5.902,-0.839,-0.010,-0.009,0.056,0.141,0.069,0.127,-0.093,-0.002,0.374,0.000,0,1,0,1,0.000,0.000,0.000,0.143,0.000,-0.006,0.000,0.020,0.143,0.020,0.000,0
20260703_204435,case01_baseline_boxes,6,294.5,1.000,17.895,531.156,-1.113,749.485,-9.805,-0.804,0.792,35.531,0.605,-7.527,0.047,-0.364,0.191,-7.541,-0.740,1.796,-85.589,0.876,2.000,-0.353,-0.015,-0.005,0.012,-0.050,0.038,-0.439,-0.023,-0.001,0.378,0.000,1,1,0,0,0.001,0.000,0.000,0.000,-0.003,-0.003,0.000,0.000,0.001,0.003,0.000,0
20260703_204435,case01_baseline_boxes,6,294.5,1.000,18.003,530.100,-1.225,749.570,-9.800,-1.249,0.799,35.681,0.049,-4.448,0.068,0.089,0.120,-4.446,-0.636,1.703,-85.611,1.035,-0.933,-0.219,-0.021,-0.003,-0.043,-0.063,0.014,-0.552,-0.030,-0.001,0.372,0.000,1,1,0,0,0.001,0.000,0.000,0.000,-0.001,-0.001,0.000,0.000,0.001,0.001,0.000,0
20260703_204435,case01_baseline_boxes,6,294.5,1.000,18.103,529.117,-1.358,749.650,-9.829,-1.350,0.811,35.836,-0.290,-1.019,0.121,0.320,0.108,-1.011,-0.520,1.251,-85.621,1.161,-4.517,-0.103,-0.034,0.000,-0.117,-0.131,0.032,-0.740,-0.049,-0.002,0.366,0.000,1,1,0,0,0.000,0.000,0.000,0.000,0.002,0.002,0.000,0.000,0.000,0.002,0.000,0
20260703_204435,case01_baseline_boxes,6,294.5,1.000,18.211,528.042,-1.483,749.738,-10.073,-0.908,0.816,36.528,-2.440,4.426,0.051,2.401,-0.163,4.445,-0.351,0.459,-85.612,1.698,-7.925,0.091,-0.034,0.005,-0.120,0.003,0.054,-0.025,-0.101,-0.003,0.334,0.000,1,1,1,1,-0.002,-0.037,0.258,-0.239,0.004,0.004,-0.001,-0.001,0.258,0.004,0.000,0
20260703_204435,case01_baseline_boxes,6,294.5,1.000,18.319,526.955,-1.552,749.825,-10.085,-0.384,0.811,36.448,-0.116,5.236,-0.059,0.133,-0.087,5.236,-0.213,-0.239,-85.598,1.375,-6.979,0.144,-0.028,0.003,-0.100,0.059,-0.019,0.200,-0.134,-0.004,0.338,0.000,1,1,1,1,-0.002,-0.008,0.359,-0.509,0.001,0.001,0.000,0.000,0.509,0.001,0.000,0
20260703_204435,case01_baseline_boxes,6,294.5,1.000,18.419,525.950,-1.508,749.907,-10.038,0.396,0.822,36.284,0.471,7.801,0.117,-0.391,0.152,7.805,-0.006,-0.510,-85.607,2.072,-2.710,-0.088,-0.037,0.000,-0.035,-0.091,-0.034,0.646,-0.107,-0.003,0.340,0.000,1,1,1,1,-0.006,-0.006,-0.001,-0.300,0.000,0.000,0.000,0.000,0.300,0.000,0.000,0
20260703_204435,case01_baseline_boxes,6,294.5,1.000,18.531,524.823,-1.468,749.998,-10.046,0.300,0.822,36.304,-0.090,-0.960,-0.006,0.078,-0.016,-0.961,0.208,-0.642,-85.613,2.134,-1.314,-0.061,-0.033,0.000,-0.002,0.044,0.003,0.329,-0.113,-0.004,0.340,0.000,1,1,1,1,-0.006,-0.005,0.021,-0.261,0.001,0.001,0.000,0.000,0.261,0.001,0.000,0
20260703_204435,case01_baseline_boxes,6,294.5,1.000,18.639,523.740,-1.442,750.086,-10.058,0.180,0.820,36.333,-0.112,-1.195,-0.021,0.097,-0.038,-1.195,0.401,-0.598,-85.617,1.932,0.438,-0.038,-0.029,0.000,0.020,0.037,0.001,0.216,-0.142,-0.005,0.340,0.000,1,1,1,1,-0.004,-0.004,0.030,-0.234,0.001,0.001,0.000,0.000,0.234,0.001,0.000,0
20260703_204435,case01_baseline_boxes,6,294.5,1.000,18.743,522.688,-1.429,750.171,-10.108,0.075,0.818,36.507,-0.500,-1.052,-0.018,0.489,-0.067,-1.055,0.573,-0.445,-85.620,1.721,1.524,-0.029,-0.025,-0.001,0.034,0.043,-0.009,0.140,-0.176,-0.006,0.343,0.000,1,1,1,1,0.001,0.003,0.049,0.263,0.003,0.003,0.000,0.000,0.263,0.003,0.000,0
20260703_204435,case01_baseline_boxes,6,294.5,1.000,18.855,521.554,-1.424,750.262,-10.106,0.021,0.809,36.499,0.015,-0.547,-0.090,-0.024,-0.096,-0.546,0.735,-0.227,-85.623,1.617,2.180,-0.029,-0.020,0.000,0.036,0.044,0.005,0.029,-0.217,-0.007,0.336,0.000,1,1,1,1,-0.002,-0.003,0.039,-0.158,0.003,0.003,0.000,0.000,0.158,0.003,0.000,0
20260703_204435,case01_baseline_boxes,6,294.5,1.000,18.959,520.500,-1.423,750.345,-10.139,0.008,0.801,36.612,-0.323,-0.130,-0.076,0.317,-0.102,-0.129,0.858,-0.030,-85.626,1.230,1.978,-0.035,-0.016,0.000,0.032,0.042,-0.004,-0.044,-0.249,-0.008,0.332,0.000,1,1,1,1,-0.002,-0.003,0.041,-0.099,0.003,0.003,0.000,0.000,0.099,0.003,0.000,0
20260703_204435,case01_baseline_boxes,6,294.5,1.000,19.063,519.444,-1.422,750.427,-10.181,0.013,0.792,36.761,-0.421,0.055,-0.092,0.413,-0.123,0.058,0.952,0.128,-85.631,0.940,1.570,-0.051,-0.012,-0.001,0.023,0.046,-0.006,-0.095,-0.310,-0.010,0.329,0.000,1,1,1,1,0.000,0.001,0.046,0.065,0.004,0.004,0.000,0.000,0.065,0.004,0.000,0
20260703_204435,case01_baseline_boxes,6,294.5,1.000,19.183,518.217,-1.420,750.522,-10.215,0.019,0.781,36.882,-0.345,0.065,-0.114,0.335,-0.139,0.068,1.023,0.237,-85.640,0.716,1.090,-0.086,-0.007,-0.002,0.010,0.048,-0.004,-0.123,-0.352,-0.012,0.324,0.000,1,1,1,1,0.000,0.000,0.045,0.038,0.004,0.004,0.000,0.000,0.045,0.004,0.000,0
20260703_204435,case01_baseline_boxes,6,294.5,1.000,19.291,517.116,-1.418,750.605,-10.246,0.015,0.770,36.989,-0.306,-0.048,-0.102,0.298,-0.126,-0.044,1.054,0.267,-85.650,0.312,0.308,-0.104,-0.002,-0.002,0.000,0.042,-0.004,-0.100,-0.384,-0.013,0.319,0.000,1,1,1,1,0.000,0.000,0.044,0.034,0.004,0.004,0.000,0.000,0.044,0.004,0.000,0
20260703_204435,case01_baseline_boxes,6,294.5,1.000,19.403,515.967,-1.417,750.691,-10.273,0.000,0.761,37.085,-0.274,-0.150,-0.098,0.267,-0.121,-0.146,1.056,0.245,-85.664,0.018,-0.219,-0.137,0.002,-0.002,-0.007,0.040,-0.004,-0.072,-0.411,-0.014,0.315,0.000,1,1,1,1,0.000,0.000,0.043,0.033,0.003,0.003,0.000,0.000,0.043,0.003,0.000,0
20260703_204435,case01_baseline_boxes,6,294.5,1.000,19.507,514.897,-1.418,750.770,-10.295,-0.017,0.752,37.161,-0.218,-0.172,-0.086,0.211,-0.105,-0.169,1.032,0.193,-85.679,-0.238,-0.520,-0.154,0.005,-0.003,-0.011,0.035,-0.004,-0.037,-0.424,-0.014,0.312,0.000,1,1,1,1,0.000,0.000,0.041,0.032,0.003,0.003,0.000,0.000,0.041,0.003,0.000,0
20260703_204435,case01_baseline_boxes,6,294.5,1.000,19.619,513.742,-1.421,750.853,-10.316,-0.034,0.743,37.233,-0.208,-0.161,-0.091,0.201,-0.109,-0.159,0.982,0.123,-85.698,-0.501,-0.706,-0.192,0.009,-0.003,-0.012,0.036,-0.004,-0.013,-0.487,-0.015,0.309,0.000,1,1,1,1,0.000,0.000,0.040,0.031,0.004,0.004,0.000,0.000,0.040,0.004,0.000,0
